#----------------------------------------------------------------------------
~VERSION INFORMATION
VERS.            2.0                  :CWLS LOG ASCII STANDARD -VERSION 2.0
WRAP.            NO                   :ONE LINE PER DEPTH STEP
#
#--------------------------------------------------------------------
~WELL INFORMATION
#MNEM .UNIT      DATA                 :DESCRIPTION OF MNEMONIC
#----------      ------------         -------------------------------
STRT  .ft        4901.0               :START DEPTH
STEP  .ft        0.5                  :STEP DEPTH
STOP  .ft        7991.0               :STOP DEPTH
NULL  .          -999.25              :NULL VALUE
WELL  .          Well_B               :WELL
XWELL .m          789112               :X POS
YWELL .m          123456               :Y POS
EDF   .          61.86                :DERICK FLOOR ELEVATION
#
#----------------------------------------------------------------------------
~CURVE INFORMATION
#MNEM.UNIT                                  :CURVE DESCRIPTION
#----------                                 -------------------------------
DEPT        .ft                             :DEPTH
CALF        .in                             :12  
SON3        .us/ft                          :10  
FDC         .g/cm3                          :7  
VSH         .fract                          :6  
RT          .ohm.m                          :4  
POR         .fract                          :3  
GR_NM       .API                            :1  
#
#----------------------------------------------------------------------------
~A          CALF        SON3        FDC         VSH         RT          POR         GR_NM       
# ...
7017.5      9.9373      105.5062    2.0503      0.0926      17.3029     0.3104      52.5117     
7018.0      9.9373      104.955     2.0514      0.0947      17.4987     0.309       49.0098     
7018.5      9.9373      107.3175    2.0503      0.1261      17.7152     0.3133      47.4453     
7019.0      9.9374      107.0812    2.0559      0.1589      17.9448     0.3091      45.8828     
7019.5      9.9374      107.475     2.0598      0.1903      18.2015     0.307       44.7959     
7020.0      9.9374      108.6562    2.0615      0.2175      18.4582     0.3074      45.5752     
7020.5      9.9124      110.0738    2.057       0.2096      18.6607     0.3125      46.3555     
7021.0      9.8903      109.8375    2.0591      0.2177      18.8184     0.3107      47.4727     
7021.5      9.8903      108.8925    2.0598      0.2053      18.7427     0.3087      50.3711     
7022.0      9.8904      109.05      2.0616      0.2142      18.661      0.3076      53.8638     
7022.5      9.8904      109.4192    2.0587      0.202       18.4932     0.3101      54.0527     
7023.0      9.8904      109.68      2.0644      0.2417      18.4093     0.3066      52.9609     
7023.5      9.8905      108.6956    2.0633      0.2215      18.4415     0.306       51.9277     
7024.0      9.8905      107.0025    2.0621      0.19        18.4656     0.3044      51.2305     
7024.5      9.8906      106.6875    2.0587      0.1652      18.4897     0.3064      50.4824     
7025.0      9.9054      106.5978    2.0587      0.165       18.5042     0.3063      49.4121     
7025.5      9.9234      106.3331    2.0531      0.1275      18.5879     0.3099      48.3408     
7026.0      9.9379      105.3487    2.0475      0.0786      18.662      0.3124      47.3748     
7026.5      9.9859      105.9       2.0454      0.0742      18.7078     0.3147      47.2188     
7027.0      10.0167     106.1363    2.0431      0.0634      18.7678     0.3167      47.1943     
7027.5      9.9496      105.3487    2.0431      0.0499      18.8198     0.3155      48.3447     
7028.0      9.8951      104.5612    2.0514      0.0881      18.883      0.3083      49.4971     
7028.5      9.8594      104.5612    2.0531      0.0972      18.9613     0.3071      50.6475     
7029.0      9.8594      104.5612    2.0559      0.1135      19.0572     0.3051      51.6016     
7029.5      9.9382      104.6298    2.0702      0.203       19.1353     0.2954      49.9746     
7030.0      9.9498      104.7187    2.0832      0.2826      19.07       0.287       48.2109     
7030.5      9.9698      103.7737    2.0911      0.3168      19.041      0.2806      44.2695     
7031.0      9.9396      103.38      2.1056      0.3932      18.9782     0.2708      42.5576     
7031.5      9.8911      102.707     2.1121      0.4167      19.0069     0.2657      43.1582     
7032.0      9.9195      102.2775    2.1195      0.4488      19.0414     0.2605      43.7231     
7032.5      9.9384      101.4112    2.1208      0.4417      19.2936     0.2584      43.2046     
7033.0      9.9385      100.7812    2.1241      0.4489      19.4609     0.2554      42.6582     
7033.5      9.9385      100.3875    2.1307      0.4792      19.7663     0.2509      40.5        
7034.0      9.9386      101.0175    2.1261      0.4655      20.0436     0.2547      40.7248     
7034.5      9.9386      101.9362    2.1274      0.4878      20.4596     0.2553      40.9497     
7035.0      9.8977      101.6869    2.1268      0.4773      20.6435     0.2552      43.9492     
7035.5      9.8599      101.6433    2.1051      0.3567      20.9229     0.2682      46.9688     
7036.0      9.8915      101.805     2.0944      0.2981      21.2023     0.2752      48.6856     
7036.5      9.8915      101.805     2.0902      0.2725      21.5625     0.2778      50.3769     
7037.0      9.8915      101.4112    2.0863      0.2433      21.5626     0.2797      50.4698     
7037.5      9.8916      101.0175    2.0881      0.252       21.5627     0.2781      45.875      
7038.0      9.8916      102.1987    2.0881      0.2706      21.5628     0.2799      47.1309     
7038.5      9.8916      103.7737    2.0996      0.3603      21.2416     0.2749      48.3106     
7039.0      9.8917      105.7425    2.1228      0.5177      21.0905     0.2637      47.7158     
7039.5      9.8917      106.7269    2.1713      0.6893      18.3738     0.2475      46.6543     
7040.0      9.9154      107.3175    2.1977      0.6839      15.8933     0.25        45.5654     
7040.5      9.9391      106.2937    2.2392      0.6749      14.9485     0.2478      44.1582     
7041.0      9.9391      104.1675    2.3433      0.724       14.2871     0.0         45.2539     
7041.5      9.9823      100.7812    2.3623      0.7436      14.1372     0.0         46.584      
7042.0      10.0494     93.6937     2.2853      0.7419      14.0983     0.0         49.1094     
7042.5      10.0495     86.9212     2.2135      0.5909      14.4199     0.1803      50.4062     
7043.0      10.0495     84.48       2.1409      0.193       14.634      0.2133      50.7397     
7043.5      10.0968     85.8187     2.0863      2.0E-4      15.8312     0.2419      50.9678     
7044.0      10.0968     85.425      2.0912      2.0E-4      17.5638     0.2401      49.9492     
7044.5      10.0969     88.7128     2.1035      0.0962      17.2399     0.2452      48.7481     
7045.0      10.1284     95.1427     2.1208      0.3239      16.6815     0.2473      47.5488     
7045.5      10.097      103.3209    2.1334      0.5318      16.1231     0.2536      50.25       
7046.0      10.0183     108.105     2.1328      0.5996      15.5647     0.261       53.3242     
7046.5      9.9966      106.3331    2.1199      0.5021      15.0063     0.266       56.3438     
7047.0      9.9396      103.7344    2.1067      0.3875      14.257      0.27        58.4238     
7047.5      9.9396      101.2144    2.0942      0.2743      13.8161     0.2738      60.3106     
7048.0      9.9397      99.2063     2.0833      0.1733      13.3752     0.2774      63.7422     
7048.5      9.9518      98.8125     2.0821      0.1542      12.3673     0.2774      68.4141     
7049.0      9.9712      100.6237    2.0973      0.2697      12.2161     0.2704      71.0371     
7049.5      9.9713      102.645     2.1167      0.4078      12.1155     0.2615      73.1133     
7050.0      10.0501     105.8212    2.1228      0.4882      11.8376     0.2626      75.7773     
7050.5      10.0186     110.2312    2.1311      0.5943      11.6433     0.2639      78.5977     
7051.0      9.8611      108.2625    2.1361      0.5875      11.385      0.258       82.2422     
7051.5      9.8612      107.3175    2.175       0.7596      11.171      0.0         86.1211     
7052.0      9.8612      108.6562    2.1677      0.7407      11.1712     0.0         90.0        
7052.5      9.8717      108.8925    2.1362      0.581       11.1713     0.2583      96.6094     
7053.0      9.8928      105.3487    2.1036      0.3472      11.4864     0.2726      102.6797    
7053.5      9.8806      102.75      2.0821      0.1855      11.858      0.2825      101.4023    
7054.0      9.8614      104.5612    2.0601      0.0909      12.3131     0.3003      95.5391     
7054.5      9.8614      103.9312    2.0515      0.0458      12.6837     0.3061      79.1562     
7055.0      9.8614      102.9469    2.0504      0.0351      12.9518     0.3058      67.9688     
7055.5      9.8615      101.175     2.0645      0.1007      13.2195     0.2934      60.2031     
7056.0      9.8616      102.3562    2.0821      0.2247      13.4841     0.2835      60.0547     
7056.5      9.8616      103.7737    2.0877      0.2777      13.9443     0.282       62.1504     
7057.0      9.8616      104.2777    2.0943      0.3212      14.011      0.2785      63.8555     
7057.5      9.8617      104.4431    2.0943      0.3209      14.126      0.2786      66.4609     
7058.0      9.8617      104.955     2.0721      0.1976      14.2411     0.2939      69.4727     
7058.5      9.852       104.8791    2.0448      0.0284      14.3227     0.3126      70.998      
