#----------------------------------------------------------------------------
~VERSION INFORMATION
VERS.            2.0                  :CWLS LOG ASCII STANDARD -VERSION 2.0
WRAP.            NO                   :ONE LINE PER DEPTH STEP
#
#--------------------------------------------------------------------
~WELL INFORMATION
#MNEM .UNIT      DATA                 :DESCRIPTION OF MNEMONIC
#----------      ------------         -------------------------------
STRT  .ft        4901.0               :START DEPTH
STEP  .ft        0.5                  :STEP DEPTH
STOP  .ft        7991.0               :STOP DEPTH
NULL  .          -999.25              :NULL VALUE
WELL  .          Well_B               :WELL
XWELL .m          789112               :X POS
YWELL .m          123456               :Y POS
EDF   .          61.86                :DERICK FLOOR ELEVATION
#
#----------------------------------------------------------------------------
~CURVE INFORMATION
#MNEM.UNIT                                  :CURVE DESCRIPTION
#----------                                 -------------------------------
DEPT        .ft                             :DEPTH
CALF        .in                             :12  
SON3        .us/ft                          :10  
FDC         .g/cm3                          :7  
VSH         .fract                          :6  
RT          .ohm.m                          :4  
POR         .fract                          :3  
GR_NM       .API                            :1  
#
#----------------------------------------------------------------------------
~A          CALF        SON3        FDC         VSH         RT          POR         GR_NM       
# ...
6146.0      9.865       101.0175    2.071       0.1637      126.4852    0.2898      35.8205     
6146.5      9.865       102.3562    2.0704      0.1828      174.6253    0.2923      35.819      
6147.0      9.865       99.4425     2.0704      0.1329      215.9184    0.2876      35.8174     
6147.5      9.865       102.9863    2.0646      0.158       290.3834    0.2972      36.3711     
6148.0      9.865       102.5925    2.0477      0.0468      304.8445    0.3084      37.0508     
6148.5      9.865       104.5612    2.0516      0.1045      347.9631    0.3088      35.7441     
6149.0      9.865       102.6675    2.0417      0.0117      371.5526    0.3129      35.4388     
6149.5      9.865       101.4112    2.0368      2.0E-4      426.9041    0.3098      35.5365     
6150.0      9.865       102.5925    2.0368      2.0E-4      465.466     0.3139      35.634      
6150.5      9.865       101.175     2.0433      2.0E-4      501.4122    0.3088      36.5928     
6151.0      9.865       101.175     2.0524      0.0526      542.5114    0.3028      36.9011     
6151.5      9.865       102.5925    2.0601      0.1232      586.0663    0.2997      36.9057     
6152.0      9.865       103.7737    2.0745      0.2292      625.0032    0.2917      36.9103     
6152.5      9.865       102.75      2.0704      0.1882      655.0068    0.2929      36.9149     
6153.0      9.865       101.5687    2.0632      0.1256      698.5374    0.296       36.4502     
6153.5      9.9438      102.9863    2.0572      0.1136      742.7395    0.3024      35.8008     
6154.0      9.865       103.5375    2.0561      0.1164      779.0214    0.3041      35.1509     
6154.5      9.865       103.1437    2.0533      0.0934      819.6062    0.3054      34.5015     
6155.0      9.865       103.38      2.0561      0.1153      859.048     0.3039      33.8521     
6155.5      9.9438      104.1675    2.0461      0.0652      899.1901    0.3122      34.2285     
6156.0      9.9438      101.9625    2.0477      0.0382      933.7654    0.3075      35.3271     
6156.5      9.9438      100.8994    2.0422      2.0E-4      967.4098    0.3079      36.064      
6157.0      9.9438      99.9937     2.0404      2.0E-4      1005.796    0.3045      36.8848     
6157.5      9.9438      100.7812    2.0261      2.0E-4      1037.371    0.3072      37.8877     
6158.0      9.9438      99.4425     2.0261      2.0E-4      1071.007    0.3023      37.8472     
6158.5      9.9561      99.0488     2.0214      2.0E-4      1104.26     0.301       37.1929     
6159.0      9.9681      100.23      2.0157      2.0E-4      1126.8719   0.3057      34.9336     
6159.5      9.9752      101.8837    2.0157      2.0E-4      1144.787    0.3121      32.3516     
6160.0      9.9955      102.2278    2.0235      2.0E-4      1163.963    0.3134      31.4439     
6160.5      10.0099     102.5824    2.0287      2.0E-4      1179.668    0.3146      31.3637     
6161.0      10.0225     102.9863    2.0319      2.0E-4      1194.069    0.316       31.2834     
6161.5      10.0063     101.9625    2.038       2.0E-4      1206.1689   0.3125      31.2032     
6162.0      9.9919      103.2619    2.0449      0.0472      1195.963    0.3117      31.0205     
6162.5      9.9752      104.955     2.0508      0.111       1181.746    0.3102      30.7571     
6163.0      9.9752      105.7425    2.0565      0.159       1167.578    0.3073      30.4937     
6163.5      9.9752      104.3644    2.0734      0.2385      1153.5      0.2937      30.749      
6164.0      9.9752      104.7187    2.0897      0.3379      1139.444    0.2835      31.4609     
6164.5      9.9752      104.5612    2.1006      0.396       1125.356    0.2762      32.1729     
6165.0      9.9752      102.0806    2.0997      0.3491      1108.417    0.2729      33.2188     
6165.5      9.9752      100.7812    2.0975      0.3135      1088.678    0.2721      34.5957     
6166.0      9.9752      100.7287    2.0913      0.2773      1066.524    0.2759      35.1648     
6166.5      9.865       101.0175    2.0865      0.2544      1045.817    0.2796      35.2705     
6167.0      9.9595      101.4112    2.0763      0.2013      1029.5811   0.2869      36.1074     
6167.5      10.1012     99.8362     2.0586      0.0669      1003.53     0.2963      37.3047     
6168.0      10.2115     98.655      2.0331      2.0E-4      981.1986    0.2991      39.7031     
6168.5      10.369      100.7812    2.0193      2.0E-4      954.7437    0.3063      43.0938     
6169.0      10.0619     100.3875    2.001       2.0E-4      924.4451    0.3045      45.9141     
6169.5      9.9708      101.0175    1.9892      2.0E-4      897.1191    0.3063      48.7305     
6170.0      9.9438      99.2325     2.0014      2.0E-4      868.3241    0.2994      50.8838     
6170.5      9.9438      98.025      2.0138      2.0E-4      838.7225    0.2947      52.1064     
6171.0      9.9752      97.7494     2.0248      2.0E-4      805.7386    0.2936      52.1426     
6171.5      9.9438      96.45       2.0274      2.0E-4      771.3909    0.2888      50.6269     
6172.0      9.9438      97.6575     2.0167      2.0E-4      742.5267    0.2937      49.4688     
6172.5      9.9438      99.6        2.0157      2.0E-4      712.4613    0.3012      48.3106     
6173.0      9.9438      101.7787    2.0131      2.0E-4      680.9786    0.309       48.3086     
6173.5      9.9438      105.963     2.0131      2.0E-4      653.4115    0.32        49.573      
6174.0      9.9438      110.6092    2.0183      2.0E-4      631.6033    0.32        49.4602     
6174.5      9.9438      112.83      2.0157      2.0E-4      609.5615    0.32        48.9277     
6175.0      9.9438      112.83      2.0157      2.0E-4      586.1544    0.32        47.3164     
6175.5      9.9438      110.9478    2.0157      2.0E-4      564.649     0.32        46.1318     
6176.0      9.9438      108.8925    2.0133      2.0E-4      540.6333    0.32        47.0        
6176.5      9.9438      109.68      2.0105      2.0E-4      517.5361    0.32        47.9307     
6177.0      9.9438      109.4438    2.004       2.0E-4      491.598     0.32        48.8613     
6177.5      9.9438      111.255     2.0015      2.0E-4      463.3585    0.32        49.791      
6178.0      10.0225     112.83      2.0005      2.0E-4      439.0553    0.32        50.2246     
6178.5      9.9752      111.1762    1.9957      2.0E-4      407.9847    0.32        49.3457     
6179.0      10.054      109.8375    1.9895      2.0E-4      372.988     0.32        48.4658     
6179.5      10.2115     111.757     1.9858      2.0E-4      348.0606    0.32        47.5879     
6180.0      9.9752      112.4362    1.9716      2.0E-4      320.5566    0.32        46.708      
6180.5      9.9752      114.1687    1.9481      2.0E-4      297.2123    0.32        45.2031     
6181.0      9.9568      112.5937    1.9315      2.0E-4      280.4764    0.32        42.0156     
6181.5      9.9438      109.4634    1.9293      2.0E-4      257.6597    0.32        41.7656     
6182.0      10.1012     107.7017    1.94        2.0E-4      243.1137    0.32        47.2188     
6182.5      10.3209     106.6875    1.9526      2.0E-4      224.5028    0.32        52.6719     
6183.0      10.5107     111.0187    1.9904      2.0E-4      200.299     0.32        58.625      
6183.5      10.6525     105.7425    2.0519      0.0907      170.0817    0.3091      66.7812     
6184.0      9.9752      103.2159    2.0745      0.1782      137.5904    0.2893      74.9375     
6184.5      9.9752      100.23      2.0618      0.0434      132.6707    0.2929      82.4062     
6185.0      9.9752      103.7737    2.0395      2.0E-4      124.2389    0.3097      85.6267     
6185.5      9.9929      104.955     2.0314      2.0E-4      115.3048    0.3137      85.1289     
6186.0      10.0109     103.38      2.0271      2.0E-4      109.0754    0.3087      83.5684     
6186.5      10.0225     109.7588    2.0271      2.0E-4      96.6142     0.32        82.4023     
6187.0      10.0225     112.83      2.0258      0.0091      92.4036     0.32        83.8291     
