#----------------------------------------------------------------------------
~VERSION INFORMATION
VERS.            2.0                  :CWLS LOG ASCII STANDARD -VERSION 2.0
WRAP.            NO                   :ONE LINE PER DEPTH STEP
#
#--------------------------------------------------------------------
~WELL INFORMATION
#MNEM .UNIT      DATA                 :DESCRIPTION OF MNEMONIC
#----------      ------------         -------------------------------
STRT  .ft        4901.0               :START DEPTH
STEP  .ft        0.5                  :STEP DEPTH
STOP  .ft        7991.0               :STOP DEPTH
NULL  .          -999.25              :NULL VALUE
WELL  .          Well_B               :WELL
XWELL .m          789112               :X POS
YWELL .m          123456               :Y POS
EDF   .          61.86                :DERICK FLOOR ELEVATION
#
#----------------------------------------------------------------------------
~CURVE INFORMATION
#MNEM.UNIT                                  :CURVE DESCRIPTION
#----------                                 -------------------------------
DEPT        .ft                             :DEPTH
CALF        .in                             :12  
SON3        .us/ft                          :10  
FDC         .g/cm3                          :7  
VSH         .fract                          :6  
RT          .ohm.m                          :4  
POR         .fract                          :3  
GR_NM       .API                            :1  
#
#----------------------------------------------------------------------------
~A          CALF        SON3        FDC         VSH         RT          POR         GR_NM       
# ...
5108.5      10.8401     119.5131    1.9917      -999.25     17.01       -999.25     -999.25     
5109.0      10.8201     117.9379    1.9585      -999.25     15.8083     -999.25     -999.25     
5109.5      10.8085     121.6386    1.9533      -999.25     14.5215     -999.25     -999.25     
5110.0      10.7297     119.9059    1.96        -999.25     12.978      -999.25     -999.25     
5110.5      10.7297     117.307     1.9782      -999.25     12.4425     -999.25     -999.25     
5111.0      10.7296     115.5742    2.0194      -999.25     12.2291     -999.25     -999.25     
5111.5      10.8871     115.1801    2.0299      -999.25     11.7653     -999.25     -999.25     
5112.0      10.8871     115.9673    2.0367      -999.25     11.4975     -999.25     -999.25     
5112.5      11.0445     112.817     2.0421      -999.25     11.5157     -999.25     -999.25     
5113.0      11.076      118.4867    2.0421      -999.25     11.5605     -999.25     -999.25     
5113.5      11.1232     122.2663    2.0449      -999.25     11.5963     -999.25     -999.25     
5114.0      11.1232     122.8174    2.04        -999.25     11.6562     -999.25     -999.25     
5114.5      11.2019     121.0846    2.026       -999.25     11.718      -999.25     -999.25     
5115.0      11.0443     122.2656    2.0079      -999.25     11.8755     -999.25     -999.25     
5115.5      11.0285     124.3916    1.993       -999.25     12.1275     -999.25     -999.25     
5116.0      10.9183     117.9337    1.9833      -999.25     12.3855     -999.25     -999.25     
5116.5      10.8867     116.3584    1.96        -999.25     12.8205     -999.25     -999.25     
5117.0      10.8867     119.9021    1.8632      -999.25     13.2403     -999.25     -999.25     
5117.5      10.8866     115.728     1.8149      -999.25     13.545      -999.25     -999.25     
5118.0      10.8866     116.1214    1.7481      -999.25     14.553      -999.25     -999.25     
5118.5      10.9653     111.7111    1.7142      -999.25     15.435      -999.25     -999.25     
5119.0      11.0242     110.4507    1.6847      -999.25     16.7737     -999.25     -999.25     
5119.5      11.422      115.3329    1.6739      -999.25     17.1544     -999.25     -999.25     
5120.0      12.3827     119.6639    1.6684      -999.25     20.37       -999.25     -999.25     
5120.5      12.3433     124.625     1.7001      -999.25     25.2378     -999.25     -999.25     
5121.0      10.7793     115.5684    1.7124      -999.25     27.405      -999.25     -999.25     
5121.5      10.0988     111.0005    1.7052      -999.25     31.5        -999.25     -999.25     
5122.0      11.1704     114.9377    1.6554      -999.25     34.65       -999.25     -999.25     
5122.5      12.2033     112.1812    1.6523      -999.25     37.0378     -999.25     -999.25     
5123.0      13.0125     113.9529    1.6844      -999.25     38.43       -999.25     -999.25     
5123.5      13.6739     116.7481    1.7247      -999.25     40.95       -999.25     -999.25     
5124.0      13.5951     117.6928    1.7692      -999.25     44.1        -999.25     -999.25     
5124.5      12.9887     120.2914    1.8275      -999.25     46.305      -999.25     -999.25     
5125.0      12.6553     116.5111    1.8506      -999.25     47.25       -999.25     -999.25     
5125.5      12.2248     118.4795    1.8429      -999.25     47.25       -999.25     -999.25     
5126.0      12.5397     113.7523    1.8199      -999.25     47.25       -999.25     -999.25     
5126.5      12.2641     110.6041    1.8021      -999.25     47.25       -999.25     -999.25     
5127.0      11.5422     114.1473    1.7675      -999.25     47.25       -999.25     -999.25     
5127.5      11.4371     111.2334    1.7504      -999.25     46.9001     -999.25     -999.25     
5128.0      11.454      113.3594    1.7378      -999.25     46.305      -999.25     -999.25     
5128.5      11.4685     110.8392    1.7406      -999.25     46.0257     -999.25     -999.25     
5129.0      11.059      114.1463    1.7566      -999.25     45.675      -999.25     -999.25     
5129.5      10.8175     116.2328    1.8023      -999.25     44.6269     -999.25     -999.25     
5130.0      10.8069     120.7607    1.8258      -999.25     44.1        -999.25     -999.25     
5130.5      11.1219     124.2253    1.8191      -999.25     44.1        -999.25     -999.25     
5131.0      11.6731     119.1064    1.7852      -999.25     44.1        -999.25     -999.25     
5131.5      10.728      119.4998    1.7639      -999.25     44.1        -999.25     -999.25     
5132.0      10.8855     115.9558    1.7691      -999.25     43.9104     -999.25     -999.25     
5132.5      11.2674     116.5068    1.7863      -999.25     43.551      -999.25     -999.25     
5133.0      11.5386     111.2303    1.7852      -999.25     43.155      -999.25     -999.25     
5133.5      11.6729     113.5924    1.7776      -999.25     43.155      -999.25     -999.25     
5134.0      11.9367     122.0183    1.7563      -999.25     43.155      -999.25     -999.25     
5134.5      12.0981     118.4743    1.7532      -999.25     41.4781     -999.25     -999.25     
5135.0      12.1217     117.3322    1.7604      -999.25     40.005      -999.25     -999.25     
5135.5      11.9405     118.71      1.7742      -999.25     39.7506     -999.25     -999.25     
5136.0      11.8302     119.4972    1.7628      -999.25     39.375      -999.25     -999.25     
5136.5      11.6727     119.6545    1.7503      2.0E-4      38.9228     -999.25     33.8272     
5137.0      11.3891     117.1341    1.7511      2.0E-4      38.1562     -999.25     33.8914     
5137.5      11.3576     121.6225    1.7589      2.0E-4      37.3895     -999.25     33.9555     
5138.0      12.2553     115.9523    1.7826      2.0E-4      36.855      -999.25     34.3898     
5138.5      11.6515     114.7708    1.8116      2.0E-4      35.7623     -999.25     34.824      
5139.0      11.3575     116.7394    1.8298      2.0E-4      34.65       -999.25     35.2582     
5139.5      11.515      119.2589    1.8588      2.0E-4      33.705      -999.25     37.5623     
5140.0      11.6724     116.3449    1.8999      2.0E-4      32.5969     -999.25     39.8664     
5140.5      11.7511     108.6271    1.9244      2.0E-4      31.5079     -999.25     42.9869     
5141.0      11.4361     110.6219    1.9344      2.0E-4      30.555      -999.25     42.2933     
5141.5      11.4508     112.1703    1.9208      2.0E-4      29.5071     -999.25     44.25       
5142.0      11.4675     115.1625    1.894       2.0E-4      28.35       -999.25     44.0        
5142.5      11.5935     114.3748    1.8481      2.0E-4      27.8158     -999.25     43.75       
5143.0      11.5934     111.2245    1.8344      2.0E-4      26.775      -999.25     39.375      
5143.5      11.4359     111.2242    1.8264      2.0E-4      26.3042     -999.25     35.0        
5144.0      11.1366     117.1302    1.8109      2.0E-4      25.83       -999.25     36.7976     
5144.5      10.9161     117.4054    1.8132      2.0E-4      24.7919     -999.25     38.5953     
5145.0      11.357      119.175     1.8588      2.0E-4      23.1525     -999.25     41.2854     
5145.5      11.231      118.1924    1.9181      2.0E-4      19.4355     -999.25     43.9754     
5146.0      12.6484     116.7353    1.97        2.0E-4      18.4138     -999.25     43.8627     
5146.5      11.9292     118.8611    2.0851      0.4963      17.5455     -999.25     43.75       
5147.0      11.0104     112.797     2.1713      0.6192      16.2855     -999.25     41.6797     
5147.5      10.9754     113.1123    2.164       0.5819      15.813      -999.25     39.6094     
5148.0      10.9631     112.0878    2.1499      0.5348      15.1515     -999.25     37.3047     
5148.5      10.9945     112.7962    2.0973      0.4714      14.834      -999.25     35.0        
5149.0      11.0256     116.3397    2.0427      0.2122      14.6475     -999.25     40.5273     
5149.5      11.0732     122.9938    1.9988      2.0E-4      14.3955     -999.25     46.0546     
