#----------------------------------------------------------------------------
~VERSION INFORMATION
VERS.            2.0                  :CWLS LOG ASCII STANDARD -VERSION 2.0
WRAP.            NO                   :ONE LINE PER DEPTH STEP
#
#--------------------------------------------------------------------
~WELL INFORMATION
#MNEM .UNIT      DATA                 :DESCRIPTION OF MNEMONIC
#----------      ------------         -------------------------------
STRT  .ft        4901.0               :START DEPTH
STEP  .ft        0.5                  :STEP DEPTH
STOP  .ft        7991.0               :STOP DEPTH
NULL  .          -999.25              :NULL VALUE
WELL  .          Well_B               :WELL
XWELL .m          789112               :X POS
YWELL .m          123456               :Y POS
EDF   .          61.86                :DERICK FLOOR ELEVATION
#
#----------------------------------------------------------------------------
~CURVE INFORMATION
#MNEM.UNIT                                  :CURVE DESCRIPTION
#----------                                 -------------------------------
DEPT        .ft                             :DEPTH
CALF        .in                             :12  
SON3        .us/ft                          :10  
FDC         .g/cm3                          :7  
VSH         .fract                          :6  
RT          .ohm.m                          :4  
POR         .fract                          :3  
GR_NM       .API                            :1  
#
#----------------------------------------------------------------------------
~A          CALF        SON3        FDC         VSH         RT          POR         GR_NM       
# ...
5648.0      10.4956     101.805     2.0754      0.2084      39.375      0.2883      31.1373     
5648.5      10.4954     101.805     2.0793      0.2303      39.375      0.2857      31.5827     
5649.0      10.4953     99.4425     2.0785      0.1868      39.375      0.2824      30.1201     
5649.5      10.4952     98.8125     2.074       0.149       39.375      0.2844      29.999      
5650.0      10.8099     103.2619    2.057       0.1235      39.375      0.3032      29.8778     
5650.5      10.8098     106.7137    2.0543      0.1608      39.375      0.3103      30.408      
5651.0      10.8097     109.8375    2.0516      0.1898      39.375      0.3166      30.9382     
5651.5      11.0458     109.4613    2.0533      0.1942      39.375      0.3149      31.4684     
5652.0      10.7306     108.1837    2.0616      0.2258      39.375      0.3073      31.9986     
5652.5      10.4548     106.53      2.0681      0.2412      39.375      0.3005      30.7152     
5653.0      10.4153     106.2937    2.0745      0.277       39.375      0.2959      29.4318     
5653.5      10.4152     103.38      2.0782      0.2547      39.375      0.2891      27.6303     
5654.0      10.4466     99.4425     2.0799      0.1975      39.375      0.2816      27.5866     
5654.5      10.336      100.5844    2.0804      0.2206      39.375      0.2831      27.543      
5655.0      10.336      103.1437    2.0817      0.271       39.375      0.2864      27.4993     
5655.5      10.9185     102.1065    2.0822      0.2568      39.375      0.2844      27.4557     
5656.0      11.0444     101.175     2.0624      0.1209      39.375      0.2962      30.1868     
5656.5      10.8237     103.3406    2.056       0.1186      39.375      0.304       29.8477     
5657.0      10.4928     106.53      2.0515      0.1417      39.375      0.312       29.5087     
5657.5      10.4927     106.3697    2.0515      0.14        39.375      0.3118      28.8306     
5658.0      10.4925     105.9       2.051       0.1289      39.375      0.3115      29.0678     
5658.5      10.4923     107.3492    2.0532      0.1647      39.1398     0.312       29.3051     
5659.0      10.4448     109.4438    2.06        0.2364      38.7803     0.3103      30.1234     
5659.5      10.681      106.1362    2.0667      0.2265      38.43       0.3009      30.9417     
5660.0      11.2006     104.9393    2.0791      0.2826      38.1843     0.2908      29.8859     
5660.5      11.1847     104.325     2.0774      0.2632      37.9446     0.291       29.1885     
5661.0      11.1531     107.0025    2.0724      0.2762      37.3275     0.2984      28.4911     
5661.5      11.1529     108.6562    2.0686      0.2793      36.3175     0.3034      27.7937     
5662.0      11.2        106.4906    2.0588      0.1883      35.5913     0.307       27.1955     
5662.5      11.1999     105.3487    2.0645      0.2059      34.8652     0.3014      26.5973     
5663.0      11.0579     106.0181    2.0799      0.297       34.139      0.2933      25.9991     
5663.5      10.9633     106.3331    2.0897      0.2931      33.7051     0.2948      25.401      
5664.0      10.963      107.3175    2.0942      0.3046      32.7165     0.2965      25.8126     
5664.5      10.9944     107.0812    2.1102      0.3193      32.13       0.2939      26.2242     
5665.0      10.9628     108.5775    2.1176      0.3656      29.7968     0.293       28.5679     
5665.5      10.9626     109.8375    2.1016      0.3421      27.405      0.2997      27.4908     
5666.0      10.9625     107.7112    2.0881      0.3122      24.9986     0.2968      26.4138     
5666.5      11.1986     108.105     2.0702      0.2838      20.9003     0.3015      25.3367     
5667.0      11.23       103.38      2.0531      0.1073      17.7124     0.3064      24.2596     
5667.5      11.1982     99.4425     2.0448      2.0E-4      14.238      0.3048      23.1825     
5668.0      11.332      102.6712    2.042       0.0241      13.1405     0.3131      26.2623     
5668.5      11.4341     104.1675    2.0538      0.1188      10.6155     0.3069      29.3422     
5669.0      11.5442     105.3487    2.0708      0.235       9.9661      0.2968      34.3397     
5669.5      10.7251     109.6012    2.1032      0.4773      8.568       0.2816      40.85       
5670.0      10.4099     115.665     2.1066      0.5623      8.3027      0.2867      56.675      
5670.5      10.4098     119.6812    2.1327      0.734       7.875       0.0         72.5        
5671.0      10.5563     121.755     2.1327      0.7484      7.1505      0.0         81.875      
5671.5      10.6457     124.5637    2.1505      0.8604      6.6604      -999.25     91.25       
5672.0      10.6455     126.7687    2.1654      0.9511      6.3         -999.25     97.029      
5672.5      10.6454     129.7612    2.1999      1.0         5.985       -999.25     102.808     
5673.0      10.5665     127.4314    2.2348      1.0         5.733       -999.25     102.8498    
5673.5      10.4404     125.5875    2.2529      1.0         5.67        -999.25     102.8916    
5674.0      10.4875     120.8625    2.2529      1.0         5.6086      -999.25     100.877     
5674.5      10.566      120.075     2.1983      1.0         5.5125      -999.25     98.8624     
5675.0      10.5659     120.705     2.1617      0.8625      5.6153      -999.25     98.8062     
5675.5      10.5657     120.1931    2.1328      0.7118      5.733       -999.25     98.75       
5676.0      10.626      119.2334    2.0697      0.354       6.048       0.3134      95.0        
5676.5      10.6757     117.555     2.0242      0.0526      6.2994      0.32        91.25       
5677.0      10.9905     119.13      2.0077      2.0E-4      6.7725      0.32        81.875      
5677.5      11.1952     116.9644    2.019       0.031       6.9929      0.32        72.5        
5678.0      10.6752     114.2868    2.019       2.0E-4      7.308       0.32        70.375      
5678.5      10.486      111.0187    2.0284      0.0182      7.765       0.32        68.25       
5679.0      10.2654     108.4987    1.9927      2.0E-4      8.19        0.32        71.2004     
5679.5      10.1707     107.8491    1.9736      2.0E-4      8.883       0.32        74.0866     
5680.0      10.5957     107.3175    1.98        2.0E-4      9.5602      0.32        81.7088     
5680.5      10.4618     107.0812    1.9912      2.0E-4      9.779       0.32        83.6361     
5681.0      10.438      112.83      2.0249      0.0043      9.9519      0.32        82.5707     
5681.5      10.367      116.7412    2.0614      0.2986      10.08       0.317       72.0426     
5682.0      10.3274     119.13      2.073       0.4006      10.2814     0.3121      69.4953     
5682.5      10.3273     116.0587    2.0771      0.3861      10.395      0.3057      69.5533     
5683.0      10.327      114.9562    2.0683      0.3209      11.025      0.3103      68.4588     
5683.5      10.4844     112.62      2.0643      0.2648      11.5369     0.31        68.7154     
5684.0      10.4843     110.4675    2.0568      0.1893      11.97       0.3122      68.9719     
5684.5      10.4369     110.625     2.0529      0.1652      12.4425     0.3151      70.9041     
5685.0      10.5277     109.68      2.0424      0.0836      12.4425     0.32        72.8363     
5685.5      10.5626     112.4362    2.0321      0.0543      12.4425     0.32        75.1994     
5686.0      10.4836     111.0187    2.0257      2.0E-4      12.4425     0.32        73.7416     
5686.5      10.4835     110.625     2.04        0.0824      12.293      0.32        72.2839     
5687.0      10.4518     114.405     2.0543      0.2275      12.1275     0.3192      69.2814     
5687.5      10.436      113.2237    2.0642      0.273       11.718      0.3108      68.5816     
5688.0      10.4594     113.7225    2.0484      0.1834      11.34       0.32        67.8818     
5688.5      10.4828     116.1375    2.0231      0.0532      11.1825     0.32        67.1819     
5689.0      10.4827     114.5625    1.9838      2.0E-4      11.2948     0.32        66.4821     
