#----------------------------------------------------------------------------
~VERSION INFORMATION
VERS.            2.0                  :CWLS LOG ASCII STANDARD -VERSION 2.0
WRAP.            NO                   :ONE LINE PER DEPTH STEP
#
#--------------------------------------------------------------------
~WELL INFORMATION
#MNEM .UNIT      DATA                 :DESCRIPTION OF MNEMONIC
#----------      ------------         -------------------------------
STRT  .ft        4901.0               :START DEPTH
STEP  .ft        0.5                  :STEP DEPTH
STOP  .ft        7991.0               :STOP DEPTH
NULL  .          -999.25              :NULL VALUE
WELL  .          Well_B               :WELL
XWELL .m          789112               :X POS
YWELL .m          123456               :Y POS
EDF   .          61.86                :DERICK FLOOR ELEVATION
#
#----------------------------------------------------------------------------
~CURVE INFORMATION
#MNEM.UNIT                                  :CURVE DESCRIPTION
#----------                                 -------------------------------
DEPT        .ft                             :DEPTH
CALF        .in                             :12  
SON3        .us/ft                          :10  
FDC         .g/cm3                          :7  
VSH         .fract                          :6  
RT          .ohm.m                          :4  
POR         .fract                          :3  
GR_NM       .API                            :1  
#
#----------------------------------------------------------------------------
~A          CALF        SON3        FDC         VSH         RT          POR         GR_NM       
# ...
7557.0      -999.25     97.4737     -999.25     -999.25     10.9355     0.2718      60.125      
7557.5      -999.25     96.8437     -999.25     -999.25     11.0258     0.2677      52.4453     
7558.0      -999.25     97.1686     -999.25     -999.25     11.0912     0.2698      51.5801     
7558.5      -999.25     97.6312     -999.25     -999.25     11.2928     0.2729      51.9971     
7559.0      -999.25     96.1744     -999.25     -999.25     11.4676     0.2634      53.1914     
7559.5      -999.25     94.3237     -999.25     -999.25     11.7254     0.2515      55.1699     
7560.0      -999.25     94.0875     -999.25     -999.25     11.9386     0.2499      57.1309     
7560.5      -999.25     93.93       -999.25     -999.25     11.9774     0.2489      55.1484     
7561.0      -999.25     93.7503     -999.25     -999.25     12.0124     0.2478      50.7891     
7561.5      -999.25     93.5362     -999.25     -999.25     12.031      0.2464      49.5229     
7562.0      -999.25     94.7175     -999.25     -999.25     11.9979     0.2541      51.6094     
7562.5      -999.25     95.8987     -999.25     -999.25     11.9754     0.2617      55.75       
7563.0      -999.25     96.0562     -999.25     -999.25     11.9528     0.2628      60.5781     
7563.5      -999.25     93.6937     -999.25     -999.25     11.9331     0.2475      66.2266     
7564.0      -999.25     92.7487     -999.25     -999.25     11.9796     0.2414      69.0078     
7564.5      -999.25     91.841      -999.25     -999.25     12.0258     0.2355      66.2656     
7565.0      -999.25     90.78       -999.25     -999.25     12.0251     0.2286      62.2617     
7565.5      -999.25     91.725      -999.25     -999.25     11.9771     0.2348      58.7109     
7566.0      -999.25     91.3706     -999.25     -999.25     11.8957     0.2325      54.4453     
7566.5      -999.25     91.7644     -999.25     -999.25     11.7498     0.2351      49.8516     
7567.0      -999.25     94.0875     -999.25     -999.25     11.6122     0.2501      48.2461     
7567.5      -999.25     92.7225     -999.25     -999.25     11.6113     0.2413      52.9141     
7568.0      -999.25     91.6681     -999.25     -999.25     11.6109     0.2345      61.1719     
7568.5      -999.25     91.1738     -999.25     -999.25     11.6101     0.1372      70.9531     
7569.0      -999.25     90.78       -999.25     -999.25     11.6091     0.1357      78.6172     
7569.5      -999.25     90.8639     -999.25     -999.25     11.5691     0.1361      79.0781     
7570.0      -999.25     90.9375     -999.25     -999.25     11.5085     0.1363      74.4062     
7570.5      -999.25     92.1975     -999.25     -999.25     11.4495     0.238       65.125      
7571.0      -999.25     93.93       -999.25     -999.25     11.3854     0.2492      53.6094     
7571.5      -999.25     94.4812     -999.25     -999.25     11.4479     0.2528      47.0039     
7572.0      -999.25     94.7816     -999.25     -999.25     11.7814     0.2548      45.779      
7572.5      -999.25     95.3869     -999.25     -999.25     12.0764     0.2587      46.1494     
7573.0      -999.25     96.2925     -999.25     -999.25     12.3909     0.2646      46.7656     
7573.5      -999.25     94.4812     -999.25     -999.25     12.3898     0.2528      47.4746     
7574.0      -999.25     96.2925     -999.25     -999.25     12.4938     0.2646      48.1826     
7574.5      -999.25     98.025      -999.25     -999.25     12.5886     0.2759      49.0322     
7575.0      -999.25     95.9907     -999.25     -999.25     12.6397     0.2627      50.1152     
7575.5      -999.25     94.3237     -999.25     -999.25     12.7434     0.2519      51.293      
7576.0      -999.25     91.8431     -999.25     -999.25     12.8143     0.2358      51.4712     
7576.5      -999.25     90.9375     -999.25     -999.25     12.8853     0.2299      49.0977     
7577.0      -999.25     92.5519     -999.25     -999.25     12.9562     0.2404      45.7188     
7577.5      -999.25     93.5918     -999.25     -999.25     13.0136     0.2472      43.7441     
7578.0      -999.25     94.0875     -999.25     -999.25     13.1076     0.2504      42.665      
7578.5      -999.25     94.9144     -999.25     -999.25     13.1695     0.2558      42.3774     
7579.0      -999.25     95.8987     -999.25     -999.25     13.1682     0.2622      43.5176     
7579.5      -999.25     95.8987     -999.25     -999.25     13.0478     0.2622      45.3106     
7580.0      -999.25     94.5994     -999.25     -999.25     12.6941     0.2538      47.9375     
7580.5      -999.25     93.6937     -999.25     -999.25     12.5831     0.2479      54.1719     
7581.0      -999.25     92.355      -999.25     -999.25     12.3719     0.2392      64.0156     
7581.5      -999.25     93.93       -999.25     -999.25     12.1607     0.1479      74.6875     
7582.0      -999.25     92.5125     -999.25     -999.25     11.9985     0.1425      86.7031     
7582.5      -999.25     93.93       -999.25     -999.25     11.8338     0.148       98.1094     
7583.0      -999.25     92.8275     -999.25     -999.25     11.7002     0.1437      105.4063    
7583.5      -999.25     91.725      -999.25     -999.25     11.5232     0.1395      107.7539    
7584.0      -999.25     91.9612     -999.25     -999.25     11.4606     0.1404      104.3516    
7584.5      -999.25     90.78       -999.25     -999.25     11.3644     0.1358      94.8281     
7585.0      -999.25     91.5675     -999.25     -999.25     11.4263     0.1389      79.0312     
7585.5      -999.25     91.9612     -999.25     -999.25     11.6071     0.2368      62.7344     
7586.0      -999.25     89.205      -999.25     -999.25     11.8875     0.2189      52.4141     
7586.5      -999.25     90.3862     -999.25     -999.25     12.0546     0.2266      50.0898     
7587.0      -999.25     91.3313     -999.25     -999.25     12.3221     0.2327      48.9609     
7587.5      -999.25     91.5675     -999.25     -999.25     12.5127     0.2343      41.9531     
7588.0      -999.25     90.78       -999.25     -999.25     12.682      0.2292      38.2332     
7588.5      -999.25     91.1738     -999.25     -999.25     12.933      0.2318      38.0757     
7589.0      -999.25     92.355      -999.25     -999.25     13.0272     0.2394      38.1665     
7589.5      -999.25     92.355      -999.25     -999.25     13.0894     0.2395      38.4543     
7590.0      -999.25     91.5675     -999.25     -999.25     13.1509     0.2343      38.4929     
7590.5      -999.25     92.1118     -999.25     -999.25     13.1505     0.2379      38.5316     
7591.0      -999.25     92.355      -999.25     -999.25     13.1498     0.2395      39.0098     
7591.5      -999.25     91.9612     -999.25     -999.25     13.1913     0.2369      40.3438     
7592.0      -999.25     91.0425     -999.25     -999.25     13.2422     0.231       42.4414     
7592.5      -999.25     91.1738     -999.25     -999.25     13.2418     0.2318      44.7295     
7593.0      -999.25     91.6697     -999.25     -999.25     13.241      0.2351      45.6455     
7593.5      -999.25     92.1187     -999.25     -999.25     13.2402     0.238       46.5615     
7594.0      -999.25     91.1738     -999.25     -999.25     13.294      0.2319      46.6856     
7594.5      -999.25     91.9612     -999.25     -999.25     13.353      0.237       45.8584     
7595.0      -999.25     92.355      -999.25     -999.25     13.3956     0.2396      46.2656     
7595.5      -999.25     92.2497     -999.25     -999.25     13.4251     0.2389      46.6816     
7596.0      -999.25     92.1187     -999.25     -999.25     13.4565     0.2381      47.1191     
7596.5      -999.25     92.9062     -999.25     -999.25     13.3927     0.2432      47.0938     
7597.0      -999.25     92.5125     -999.25     -999.25     13.3571     0.2407      46.0078     
7597.5      -999.25     92.355      -999.25     -999.25     13.2965     0.2396      44.9219     
7598.0      -999.25     91.725      -999.25     -999.25     13.2331     0.2356      43.1992     
