#----------------------------------------------------------------------------
~VERSION INFORMATION
VERS.            2.0                  :CWLS LOG ASCII STANDARD -VERSION 2.0
WRAP.            NO                   :ONE LINE PER DEPTH STEP
#
#--------------------------------------------------------------------
~WELL INFORMATION
#MNEM .UNIT      DATA                 :DESCRIPTION OF MNEMONIC
#----------      ------------         -------------------------------
STRT  .ft        4901.0               :START DEPTH
STEP  .ft        0.5                  :STEP DEPTH
STOP  .ft        7991.0               :STOP DEPTH
NULL  .          -999.25              :NULL VALUE
WELL  .          Well_B               :WELL
XWELL .m          789112               :X POS
YWELL .m          123456               :Y POS
EDF   .          61.86                :DERICK FLOOR ELEVATION
#
#----------------------------------------------------------------------------
~CURVE INFORMATION
#MNEM.UNIT                                  :CURVE DESCRIPTION
#----------                                 -------------------------------
DEPT        .ft                             :DEPTH
CALF        .in                             :12  
SON3        .us/ft                          :10  
FDC         .g/cm3                          :7  
VSH         .fract                          :6  
RT          .ohm.m                          :4  
POR         .fract                          :3  
GR_NM       .API                            :1  
#
#----------------------------------------------------------------------------
~A          CALF        SON3        FDC         VSH         RT          POR         GR_NM       
# ...
5814.0      12.3505     113.775     1.7805      2.0E-4      659.0386    0.32        29.3051     
5814.5      12.6482     111.6487    1.7727      2.0E-4      664.2231    0.32        29.2339     
5815.0      10.8368     111.8062    1.7537      2.0E-4      679.7109    0.32        29.1627     
5815.5      12.0423     109.68      1.7609      2.0E-4      702.3716    0.32        29.6436     
5816.0      12.821      111.6487    1.7832      2.0E-4      728.6477    0.32        28.8691     
5816.5      13.0729     109.8375    1.8035      2.0E-4      744.9376    0.32        27.207      
5817.0      11.86       109.4438    1.84        2.0E-4      760.4023    0.32        26.126      
5817.5      13.2772     112.8103    1.8632      2.0E-4      771.415     0.32        25.4004     
5818.0      13.6235     117.3188    1.8731      2.0E-4      779.7881    0.32        24.6758     
5818.5      13.6234     116.2406    1.8799      2.0E-4      782.7668    0.32        24.5081     
5819.0      13.6232     114.405     1.8961      2.0E-4      784.4316    0.32        24.9565     
5819.5      13.6231     110.205     1.8852      2.0E-4      784.7379    0.32        25.4448     
5820.0      13.5494     103.5375    1.8672      2.0E-4      785.0529    0.3192      25.5272     
5820.5      13.0558     105.5063    1.804       2.0E-4      779.2489    0.32        25.3688     
5821.0      12.9806     101.805     1.7656      2.0E-4      764.6874    0.3135      25.2104     
5821.5      13.2864     106.1363    1.758       2.0E-4      744.1222    0.32        25.052      
5822.0      13.5436     105.3487    1.7552      2.0E-4      726.4395    0.32        25.3897     
5822.5      13.6222     114.1687    1.7509      2.0E-4      716.1238    0.32        26.167      
5823.0      13.433      110.625     1.7472      2.0E-4      714.9611    0.32        26.5564     
5823.5      12.8816     108.8925    1.7537      2.0E-4      709.0779    0.32        26.5777     
5824.0      13.3539     112.5937    1.7987      2.0E-4      699.2111    0.32        26.4158     
5824.5      13.1726     104.5612    1.7756      2.0E-4      685.1312    0.32        26.0671     
5825.0      12.9687     104.64      1.7416      2.0E-4      671.5238    0.32        25.7178     
5825.5      12.6184     105.7425    1.692       2.0E-4      653.5712    0.32        25.5001     
5826.0      13.2746     101.5687    1.6246      2.0E-4      639.4452    0.3131      25.431      
5826.5      12.5972     105.1125    1.6173      2.0E-4      616.0249    0.32        25.3619     
5827.0      13.227      107.9737    1.6754      2.0E-4      596.5704    0.32        25.2929     
5827.5      12.9905     113.3813    1.6952      2.0E-4      583.7264    0.32        25.2238     
5828.0      13.2739     113.3813    1.7298      2.0E-4      565.1298    0.32        25.1547     
5828.5      12.6438     110.625     1.7528      2.0E-4      542.5546    0.32        25.0856     
5829.0      13.2264     108.8925    1.7638      2.0E-4      518.7939    0.32        25.0165     
5829.5      13.5885     108.6037    1.8133      2.0E-4      489.3943    0.32        25.0586     
5830.0      12.8796     106.53      1.8723      2.0E-4      459.0074    0.32        25.2695     
5830.5      13.6197     111.8062    1.9495      2.0E-4      422.8352    0.32        26.8398     
5831.0      13.4305     105.3487    1.9481      2.0E-4      390.0793    0.32        29.234      
5831.5      13.5879     108.0853    1.9177      2.0E-4      354.4904    0.32        28.1719     
5832.0      13.0128     112.4362    1.8972      2.0E-4      348.0118    0.32        25.8603     
5832.5      12.1227     106.1363    1.836       2.0E-4      331.8726    0.32        24.7627     
5833.0      12.91       109.68      1.7877      2.0E-4      311.6938    0.32        23.666      
5833.5      13.1147     108.105     1.7265      2.0E-4      286.0969    0.32        23.0571     
5834.0      12.4649     105.5062    1.7005      2.0E-4      264.4681    0.32        23.4531     
5834.5      12.2481     102.5925    1.7336      2.0E-4      239.757     0.3165      24.1992     
5835.0      12.0432     107.1262    1.7875      2.0E-4      211.5138    0.32        25.7246     
5835.5      12.4841     112.9875    1.8263      2.0E-4      196.5581    0.32        27.25       
5836.0      12.9092     105.1388    1.9051      2.0E-4      176.282     0.32        28.7754     
5836.5      12.7515     99.9937     1.9194      2.0E-4      158.4261    0.3058      30.3027     
5837.0      12.7985     105.7425    1.9286      2.0E-4      130.3977    0.32        32.5195     
5837.5      12.8772     106.9238    1.9593      2.0E-4      121.0754    0.32        38.1016     
5838.0      11.3296     105.9394    2.0709      0.2294      111.6821    0.297       48.1406     
5838.5      10.2309     105.7425    2.0933      0.345       102.3716    0.2816      58.3594     
5839.0      10.1204     103.5217    2.089       0.2764      90.1522     0.2806      66.4609     
5839.5      10.1819     104.4931    2.0138      2.0E-4      88.0682     0.3145      71.5312     
5840.0      10.0204     102.9863    1.9469      2.0E-4      83.9565     0.3104      65.9219     
5840.5      10.8235     110.4675    1.9325      2.0E-4      79.8968     0.32        60.0156     
5841.0      11.3799     106.6875    1.9298      2.0E-4      77.3888     0.32        53.8867     
5841.5      10.9228     111.0778    1.9132      2.0E-4      76.3922     0.32        51.7891     
5842.0      10.5132     114.7987    1.9031      2.0E-4      85.1811     0.32        49.6894     
5842.5      10.5919     112.2       1.8998      2.0E-4      92.4976     0.32        48.8281     
5843.0      10.3869     114.2737    1.8726      2.0E-4      102.3716    0.32        53.9219     
5843.5      10.3868     117.555     1.8072      2.0E-4      108.4421    0.32        57.2598     
5844.0      10.8276     116.7675    1.771       2.0E-4      120.0865    0.32        56.04       
5844.5      11.6937     112.83      1.7861      2.0E-4      132.578     0.32        54.1641     
5845.0      11.5676     114.7987    1.8032      2.0E-4      143.3232    0.32        47.9766     
5845.5      12.0399     112.9252    1.8412      2.0E-4      161.498     0.32        41.7812     
5846.0      11.6933     108.6562    1.8694      2.0E-4      184.3277    0.32        35.5859     
5846.5      11.9241     112.0425    1.8778      2.0E-4      206.0937    0.32        30.1201     
5847.0      12.061      113.6175    1.8517      2.0E-4      218.198     0.32        31.3584     
5847.5      11.8713     107.7112    1.8433      2.0E-4      256.2937    0.32        32.5977     
5848.0      12.0076     105.2306    1.8405      2.0E-4      288.1674    0.32        33.8369     
5848.5      12.48       103.7737    1.8475      2.0E-4      310.3978    0.3185      34.9624     
5849.0      13.1413     106.53      1.8475      2.0E-4      355.2817    0.32        34.3408     
5849.5      12.267      104.5612    1.8611      2.0E-4      381.2195    0.32        33.7192     
5850.0      11.2983     104.1675    1.8797      2.0E-4      405.6284    0.32        33.0972     
5850.5      11.6177     113.3813    1.9164      2.0E-4      428.3799    0.32        32.5117     
5851.0      11.7705     106.8056    1.9519      2.0E-4      449.3912    0.32        33.293      
5851.5      10.7072     105.1125    1.9546      2.0E-4      464.3068    0.32        35.0039     
5852.0      10.2739     102.5925    1.9674      2.0E-4      477.2162    0.3139      36.7129     
5852.5      10.384      108.3019    1.9721      2.0E-4      488.0667    0.32        44.9766     
5853.0      10.2263     110.0738    1.9776      2.0E-4      496.8101    0.32        53.25       
5853.5      10.2262     106.6875    1.9776      2.0E-4      505.627     0.32        53.9829     
5854.0      10.7458     109.68      1.9791      2.0E-4      521.048     0.32        54.5684     
5854.5      10.5881     108.1837    1.9847      2.0E-4      538.7919    0.32        48.1172     
5855.0      10.7454     104.7187    2.0034      2.0E-4      567.9535    0.32        41.0391     
