#----------------------------------------------------------------------------
~VERSION INFORMATION
VERS.            2.0                  :CWLS LOG ASCII STANDARD -VERSION 2.0
WRAP.            NO                   :ONE LINE PER DEPTH STEP
#
#--------------------------------------------------------------------
~WELL INFORMATION
#MNEM .UNIT      DATA                 :DESCRIPTION OF MNEMONIC
#----------      ------------         -------------------------------
STRT  .ft        4901.0               :START DEPTH
STEP  .ft        0.5                  :STEP DEPTH
STOP  .ft        7991.0               :STOP DEPTH
NULL  .          -999.25              :NULL VALUE
WELL  .          Well_B               :WELL
XWELL .m          789112               :X POS
YWELL .m          123456               :Y POS
EDF   .          61.86                :DERICK FLOOR ELEVATION
#
#----------------------------------------------------------------------------
~CURVE INFORMATION
#MNEM.UNIT                                  :CURVE DESCRIPTION
#----------                                 -------------------------------
DEPT        .ft                             :DEPTH
CALF        .in                             :12  
SON3        .us/ft                          :10  
FDC         .g/cm3                          :7  
VSH         .fract                          :6  
RT          .ohm.m                          :4  
POR         .fract                          :3  
GR_NM       .API                            :1  
#
#----------------------------------------------------------------------------
~A          CALF        SON3        FDC         VSH         RT          POR         GR_NM       
# ...
6851.5      10.3179     104.955     2.2033      0.8699      18.5263     0.0         69.5649     
6852.0      10.2392     106.53      2.2478      1.0         16.4789     0.0         69.0352     
6852.5      10.2708     108.8925    2.3715      1.0         14.7465     0.0         69.877      
6853.0      10.4283     105.9787    2.3964      1.0         13.0141     0.0         68.5469     
6853.5      10.2393     93.615      2.2926      0.9203      11.1243     0.0         59.6562     
6854.0      10.1921     85.2482     2.1721      0.3732      10.6676     0.1981      42.6562     
6854.5      10.1729     80.5425     2.0768      2.0E-4      10.337      0.2173      31.8066     
6855.0      10.1607     73.8487     1.9828      2.0E-4      10.3371     0.1762      33.2129     
6855.5      10.4603     67.5487     1.9641      2.0E-4      10.9673     0.1302      34.6191     
6856.0      10.7435     70.5806     1.9954      2.0E-4      12.3218     0.1528      36.5625     
6856.5      10.2711     82.0387     2.0294      2.0E-4      13.9227     0.2244      39.1992     
6857.0      10.2711     90.5831     2.0736      2.0E-4      15.3049     0.2657      42.3164     
6857.5      10.2712     95.127      2.0785      0.0906      16.3227     0.2741      45.4453     
6858.0      10.2712     103.1437    2.0756      0.2132      18.8427     0.2896      47.7012     
6858.5      10.3031     101.0488    2.0582      0.0727      20.6227     0.298       49.0568     
6859.0      10.3185     95.1113     2.0388      2.0E-4      21.2055     0.284       47.9062     
6859.5      10.3973     97.2769     2.0176      2.0E-4      20.7332     0.2929      45.4121     
6860.0      10.3501     99.0488     2.0224      2.0E-4      18.922      0.2994      46.9219     
6860.5      10.2714     101.5687    2.0292      2.0E-4      17.8164     0.3076      52.375      
6861.0      10.2714     103.7147    2.0454      0.0294      17.2685     0.311       56.3203     
6861.5      10.2715     106.9238    2.0471      0.0864      16.5204     0.3145      59.8271     
6862.0      10.2715     110.4675    2.0443      0.1199      15.7921     0.32        61.2402     
6862.5      10.2716     108.2625    2.0286      2.0E-4      15.0639     0.32        64.8438     
6863.0      10.3051     106.6087    2.0239      2.0E-4      14.5915     0.32        70.9219     
6863.5      10.3496     105.7425    2.0334      2.0E-4      13.8356     0.3177      76.4297     
6864.0      10.3942     107.0812    2.0221      2.0E-4      13.3317     0.32        81.5586     
6864.5      10.4292     101.0175    2.0187      2.0E-4      12.8905     0.3006      82.9673     
6865.0      10.3977     102.9863    2.0388      2.0E-4      12.5445     0.3074      83.2708     
6865.5      10.3978     104.7187    2.0983      0.3294      12.0858     0.2758      83.3011     
6866.0      10.3978     106.53      2.1451      0.6047      11.5682     0.2503      84.0938     
6866.5      10.457      102.1987    2.1788      0.6953      11.2689     0.2251      86.6133     
6867.0      10.5082     103.2619    2.2088      0.8452      11.222      0.0         89.1328     
6867.5      10.4456     106.9238    2.1795      0.7669      11.1735     0.0         93.1719     
6868.0      10.398      105.6244    2.1209      0.4483      11.0647     0.2625      99.9883     
6868.5      10.2666     105.9394    2.0876      0.2667      10.8128     0.2837      102.9131    
6869.0      10.1933     104.5612    2.0756      0.1774      10.3405     0.2896      101.1016    
6869.5      10.1618     103.5375    2.0798      0.1908      10.248      0.2855      96.0        
6870.0      10.0831     102.5925    2.0739      0.1437      10.0257     0.288       93.2461     
6870.5      10.1686     97.6312     2.0664      0.0155      9.9628      0.2849      90.9102     
6871.0      10.2407     98.9306     2.0526      2.0E-4      9.8575      0.2918      89.6699     
6871.5      10.2144     99.4425     2.0583      0.0023      9.7705      0.2937      87.8496     
6872.0      10.1935     97.8675     2.0888      0.1563      9.7111      0.2706      86.0332     
6872.5      10.1936     99.2063     2.117       0.3382      9.5013      0.2553      84.2129     
6873.0      10.1936     101.0175    2.1652      0.6163      9.3963      0.2306      82.1602     
6873.5      10.1937     102.5925    2.2064      0.8349      9.0322      0.0         79.1406     
6874.0      10.1622     98.8125     2.225       0.854       8.8611      0.0         75.1562     
6874.5      10.2273     101.4112    2.2345      0.9453      8.2312      0.0         68.9727     
6875.0      10.3198     98.655      2.2462      0.9477      7.9792      0.0         66.1545     
6875.5      10.5561     99.8362     2.2523      0.9926      7.759       0.0         66.3804     
6876.0      10.5561     101.7262    2.2355      0.9569      7.1921      0.0         66.9512     
6876.5      10.441      105.7031    2.2251      0.9756      6.9813      0.0         69.332      
6877.0      10.3751     107.3175    2.2104      0.935       6.7198      0.0         71.9941     
6877.5      10.2362     101.805     2.1893      0.7532      6.4678      0.0         72.2305     
6878.0      10.1153     100.3905    2.1762      0.6717      6.342       0.2242      69.3516     
6878.5      10.0838     98.655      2.1634      0.5825      6.2476      0.2282      67.5469     
6879.0      10.0736     99.2063     2.1563      0.5541      5.7753      0.233       70.7812     
6879.5      10.0573     99.3244     2.1507      0.5231      5.5077      0.2361      75.6875     
6880.0      10.0367     99.6        2.1606      0.5719      5.1608      0.2309      79.8125     
6880.5      10.0456     102.0019    2.2185      0.8815      4.6416      0.0         75.2344     
6881.0      10.0576     104.5612    2.2285      0.9687      3.9803      0.0         71.9844     
6881.5      10.0697     100.5056    2.2454      0.9764      3.7661      0.0         66.6218     
6882.0      10.0841     97.1648     2.2506      0.878       3.508       0.0         66.4082     
6882.5      10.1213     93.93       2.2173      0.7012      3.3647      0.0         66.1941     
6883.0      10.1629     97.08       2.1932      0.6938      3.2093      0.2098      66.2109     
6883.5      10.1785     102.0806    2.1599      0.6224      3.0988      0.2358      69.4844     
6884.0      10.1945     109.1287    2.1441      0.6467      3.0132      0.2549      76.8281     
6884.5      10.2418     113.1975    2.1369      0.6557      2.9416      -999.25     87.7344     
6885.0      10.2083     118.71      2.139       0.7316      2.9417      -999.25     93.207      
6885.5      10.1631     123.225     2.1507      0.8421      2.9418      -999.25     95.2422     
6886.0      10.0844     123.855     2.1722      0.9471      2.8348      -999.25     100.7891    
6886.5      10.0845     125.43      2.2251      1.0         2.7845      -999.25     104.0332    
6887.0      10.116      125.5875    2.2613      1.0         2.6272      -999.25     101.7813    
6887.5      10.116      121.4925    2.2777      1.0         2.5013      -999.25     96.2773     
6888.0      10.116      120.075     2.2685      1.0         2.3816      -999.25     93.3125     
6888.5      10.1161     117.6337    2.263       1.0         2.3125      -999.25     85.1875     
6889.0      10.1161     113.6175    2.2568      1.0         2.0922      -999.25     82.6094     
6889.5      10.1162     105.0862    2.2506      0.8394      2.0422      -999.25     80.0469     
6890.0      10.1162     100.6237    2.2613      0.718       1.9719      -999.25     80.4009     
6890.5      10.1163     100.3875    2.2613      0.6976      1.9349      -999.25     83.1758     
6891.0      10.1435     105.3487    2.2595      0.8552      2.0332      -999.25     84.9141     
6891.5      10.1636     104.325     2.2524      0.828       2.0927      -999.25     95.4219     
6892.0      10.1636     107.5144    2.255       0.8997      2.0929      -999.25     103.7578    
6892.5      10.1637     111.3337    2.2524      0.9805      2.093       -999.25     106.7148    
