#----------------------------------------------------------------------------
~VERSION INFORMATION
VERS.            2.0                  :CWLS LOG ASCII STANDARD -VERSION 2.0
WRAP.            NO                   :ONE LINE PER DEPTH STEP
#
#--------------------------------------------------------------------
~WELL INFORMATION
#MNEM .UNIT      DATA                 :DESCRIPTION OF MNEMONIC
#----------      ------------         -------------------------------
STRT  .ft        4901.0               :START DEPTH
STEP  .ft        0.5                  :STEP DEPTH
STOP  .ft        7991.0               :STOP DEPTH
NULL  .          -999.25              :NULL VALUE
WELL  .          Well_B               :WELL
XWELL .m          789112               :X POS
YWELL .m          123456               :Y POS
EDF   .          61.86                :DERICK FLOOR ELEVATION
#
#----------------------------------------------------------------------------
~CURVE INFORMATION
#MNEM.UNIT                                  :CURVE DESCRIPTION
#----------                                 -------------------------------
DEPT        .ft                             :DEPTH
CALF        .in                             :12  
SON3        .us/ft                          :10  
FDC         .g/cm3                          :7  
VSH         .fract                          :6  
RT          .ohm.m                          :4  
POR         .fract                          :3  
GR_NM       .API                            :1  
#
#----------------------------------------------------------------------------
~A          CALF        SON3        FDC         VSH         RT          POR         GR_NM       
# ...
7391.0      9.6287      104.5612    1.9868      2.0E-4      29.6        0.3063      122.0938    
7391.5      9.6436      105.5063    1.9931      2.0E-4      27.7776     0.3121      105.8281    
7392.0      9.6603      105.4012    2.0105      2.0E-4      26.4345     0.3127      100.3438    
7392.5      9.6916      105.3487    2.0222      2.0E-4      25.2025     0.3147      87.1719     
7393.0      9.7075      103.5769    2.0341      2.0E-4      24.4817     0.3098      80.875      
7393.5      9.7075      102.2185    2.0341      2.0E-4      22.6549     0.3065      72.7695     
7394.0      9.7075      101.2234    2.0422      2.0E-4      20.9224     0.3024      76.0586     
7394.5      9.7075      100.2283    2.0488      2.0E-4      20.199      0.2982      79.5703     
7395.0      9.7075      99.2331     2.0505      2.0E-4      19.6627     0.2936      85.5703     
7395.5      9.7261      98.4187     2.0601      8.0E-4      18.8123     0.291       82.5664     
7396.0      9.739       97.4737     2.0813      0.1128      18.4352     0.2751      79.5664     
7396.5      9.739       97.08       2.096       0.1929      17.9306     0.265       76.5625     
7397.0      9.739       96.2925     2.1091      0.254       17.5966     0.2555      73.5273     
7397.5      9.7681      95.505      2.1263      0.3355      17.2134     0.2438      69.3789     
7398.0      9.7863      94.7175     2.1296      0.3422      16.9229     0.2406      65.2539     
7398.5      9.739       94.3237     2.1243      0.3101      16.4668     0.2431      62.25       
7399.0      9.739       93.1425     2.1145      0.2367      16.1986     0.2469      60.3633     
7399.5      9.739       92.355      2.1101      0.1986      15.8541     0.2482      58.4766     
7400.0      9.739       91.9612     2.1084      0.1836      15.6633     0.2323      56.5898     
7400.5      9.739       92.762      2.1069      0.1929      15.5526     0.2375      55.4453     
7401.0      9.739       93.5362     2.105       0.1983      15.4672     0.2424      55.2354     
7401.5      9.7075      94.3237     2.1075      0.228       15.3488     0.2474      55.0398     
7402.0      9.7075      94.8388     2.1145      0.2689      15.2705     0.2507      61.6016     
7402.5      9.7075      95.1113     2.1279      0.3413      15.097      0.2525      65.0977     
7403.0      9.7075      95.1113     2.1431      0.4092      14.9692     0.1511      74.2188     
7403.5      9.7075      95.1113     2.1501      0.4407      14.7822     0.1511      77.0156     
7404.0      9.7075      95.505      2.1483      0.4368      14.4674     0.1526      79.4531     
7404.5      9.7075      96.2925     2.1466      0.4409      14.3985     0.1557      81.5977     
7405.0      9.7075      95.6625     2.1343      0.3642      14.3101     0.1533      83.7227     
7405.5      9.7075      96.1123     2.1197      0.2942      14.3102     0.155       85.8477     
7406.0      9.7075      96.45       2.1081      0.2358      14.3103     0.1563      87.9727     
7406.5      9.7075      97.7494     2.0889      0.1501      14.2015     0.1612      90.0957     
7407.0      9.6287      98.8125     2.0763      0.0942      14.0658     0.1653      92.2207     
7407.5      9.6713      99.9937     2.0913      0.1985      13.9302     0.1698      95.1328     
7408.0      9.7075      101.0175    2.099       0.2561      13.7753     0.1737      98.1367     
7408.5      9.7075      101.9625    2.1155      0.36        13.5393     0.1773      100.1426    
7409.0      9.7075      101.5687    2.1276      0.4241      13.264      0.1758      94.1172     
7409.5      9.7075      101.175     2.123       0.4072      13.0511     0.1743      81.4219     
7410.0      9.6287      101.5219    2.1197      0.406       12.9141     0.1757      72.0859     
7410.5      9.6688      101.805     2.1197      0.4157      12.8308     0.2954      67.5977     
7411.0      9.7075      101.805     2.1132      0.3892      12.9811     0.2954      60.25       
7411.5      9.7075      100.7812    2.105       0.3321      13.1461     0.2889      55.4023     
7412.0      9.7075      100.7812    2.0726      0.152       13.3328     0.2889      51.1602     
7412.5      9.7075      99.4425     2.0646      0.086       13.6325     0.2804      46.9258     
7413.0      9.7075      96.9619     2.0658      0.0505      13.9339     0.2646      44.8144     
7413.5      9.7075      94.1249     2.0859      0.1159      14.2555     0.2465      43.1738     
7414.0      9.7075      91.9612     2.1101      0.2092      14.5788     0.2327      41.5352     
7414.5      9.7075      92.7487     2.1263      0.3128      14.7848     0.2377      40.7002     
7415.0      9.7075      95.2688     2.1303      0.3843      14.8559     0.2538      40.0654     
7415.5      9.7075      95.3837     2.1343      0.4077      14.9081     0.2546      39.4307     
7416.0      9.7075      95.6625     2.1397      0.4415      14.9426     0.2563      38.7969     
7416.5      9.7075      95.5896     2.1343      0.4131      14.7123     0.2559      38.1631     
7417.0      9.6741      94.0875     2.1296      0.3604      14.5567     0.2463      37.5283     
7417.5      9.6287      94.3237     2.1263      0.3482      14.4705     0.2478      37.0825     
7418.0      9.6287      93.1425     2.1248      0.319       14.2502     0.2403      35.0039     
7418.5      9.6287      94.4812     2.123       0.3411      14.2291     0.2489      30.6016     
7419.0      9.6287      95.505      2.1197      0.3258      14.2005     0.2554      28.0664     
7419.5      9.6611      96.8437     2.1197      0.3022      14.1719     0.264       26.4277     
7420.0      9.7075      96.9619     2.123       0.2987      14.156      0.2647      26.1045     
7420.5      9.7075      97.08       2.1197      0.3004      14.0869     0.2655      26.2844     
7421.0      9.7201      97.4737     2.1187      0.3062      14.0391     0.268       26.5986     
7421.5      9.739       99.0488     2.1171      0.3158      13.9913     0.2781      26.9678     
7422.0      9.739       100.23      2.1145      0.3237      13.9361     0.2857      27.3374     
7422.5      9.739       100.23      2.1123      0.3417      13.96       0.2857      28.4805     
7423.0      9.7312      99.8362     2.1064      0.3516      13.9994     0.2832      29.7227     
7423.5      9.7178      99.8362     2.0981      0.3047      13.9994     0.2832      30.8418     
7424.0      9.7075      97.8675     2.0913      0.2294      13.9995     0.2706      32.7148     
7424.5      9.7075      96.0956     2.1037      0.2634      13.9687     0.2593      34.9688     
7425.0      9.7075      95.1113     2.1101      0.2776      13.9368     0.2531      36.4785     
7425.5      9.7075      95.8987     2.1101      0.2959      13.9687     0.2581      33.4609     
7426.0      9.7075      96.6862     2.1145      0.3347      14.0        0.2631      33.7227     
7426.5      9.7075      96.45       2.1145      0.3266      13.8012     0.2617      37.1016     
7427.0      9.7075      95.505      2.1132      0.2991      13.7415     0.2556      39.5391     
7427.5      9.7075      95.6625     2.1132      0.3         13.6854     0.2566      41.416      
7428.0      9.7075      95.1107     2.1177      0.3125      13.6855     0.2531      42.1373     
7428.5      9.7075      94.7175     2.1197      0.3185      13.6856     0.2506      39.6172     
7429.0      9.7075      93.5362     2.1132      0.2631      13.6857     0.2431      37.2754     
7429.5      9.7075      92.7487     2.1178      0.2728      13.6858     0.2381      36.1387     
7430.0      9.7075      93.3        2.1263      0.3302      13.686      0.2416      35.0019     
7430.5      9.7075      94.3237     2.1296      0.3691      13.7143     0.2482      33.8672     
7431.0      9.7075      95.505      2.1243      0.364       13.7411     0.2557      34.0762     
7431.5      9.7075      97.08       2.1186      0.3623      13.7809     0.2658      35.293      
7432.0      9.7075      97.553      2.1091      0.3182      13.7383     0.2688      36.5078     
