#----------------------------------------------------------------------------
~VERSION INFORMATION
VERS.            2.0                  :CWLS LOG ASCII STANDARD -VERSION 2.0
WRAP.            NO                   :ONE LINE PER DEPTH STEP
#
#--------------------------------------------------------------------
~WELL INFORMATION
#MNEM .UNIT      DATA                 :DESCRIPTION OF MNEMONIC
#----------      ------------         -------------------------------
STRT  .ft        4901.0               :START DEPTH
STEP  .ft        0.5                  :STEP DEPTH
STOP  .ft        7991.0               :STOP DEPTH
NULL  .          -999.25              :NULL VALUE
WELL  .          Well_B               :WELL
XWELL .m          789112               :X POS
YWELL .m          123456               :Y POS
EDF   .          61.86                :DERICK FLOOR ELEVATION
#
#----------------------------------------------------------------------------
~CURVE INFORMATION
#MNEM.UNIT                                  :CURVE DESCRIPTION
#----------                                 -------------------------------
DEPT        .ft                             :DEPTH
CALF        .in                             :12  
SON3        .us/ft                          :10  
FDC         .g/cm3                          :7  
VSH         .fract                          :6  
RT          .ohm.m                          :4  
POR         .fract                          :3  
GR_NM       .API                            :1  
#
#----------------------------------------------------------------------------
~A          CALF        SON3        FDC         VSH         RT          POR         GR_NM       
# ...
5980.0      9.9438      103.9312    2.0769      0.2539      23.5198     0.2907      29.3516     
5980.5      9.865       102.3562    2.0868      0.2838      23.1178     0.2817      30.6973     
5981.0      9.9438      107.8687    2.0913      0.3664      23.442      0.2907      29.5293     
5981.5      9.9438      107.7112    2.0734      0.2938      23.7656     0.2988      27.6758     
5982.0      9.9438      105.6113    2.0616      0.1917      24.0537     0.3037      27.1717     
5982.5      9.9752      106.6717    2.0428      0.0903      24.6285     0.3185      28.2656     
5983.0      10.054      110.2312    2.0183      2.0E-4      25.1466     0.32        27.3223     
5983.5      10.054      111.8062    2.003       2.0E-4      25.6192     0.32        26.1055     
5984.0      10.054      109.8375    1.9882      2.0E-4      25.6158     0.32        25.2295     
5984.5      10.054      109.5619    1.9727      2.0E-4      25.6126     0.32        24.3535     
5985.0      10.2194     108.6562    1.961       2.0E-4      25.6101     0.32        23.4775     
5985.5      10.2903     110.4675    1.9564      2.0E-4      25.6063     0.32        23.4482     
5986.0      10.6053     110.0738    1.9542      2.0E-4      25.6026     0.32        23.8574     
5986.5      10.3769     112.515     1.9748      2.0E-4      25.379      0.32        24.1404     
5987.0      10.1012     114.0113    2.0055      2.0E-4      25.1096     0.32        24.3533     
5987.5      10.1012     112.5937    2.0046      2.0E-4      24.8402     0.32        24.9121     
5988.0      10.3375     114.405     2.004       2.0E-4      24.6465     0.32        25.6777     
5988.5      9.865       110.625     2.0186      2.0E-4      24.2329     0.32        28.0508     
5989.0      9.9752      110.3887    2.018       2.0E-4      24.0103     0.32        29.3611     
5989.5      10.0218     109.5277    2.0052      2.0E-4      23.6292     0.32        29.2546     
5990.0      10.1327     107.3962    1.9931      2.0E-4      23.3384     0.32        29.1483     
5990.5      10.054      107.0812    1.9874      2.0E-4      23.0543     0.32        28.2637     
5991.0      10.0427     105.6112    1.981       2.0E-4      23.0517     0.32        26.791      
5991.5      10.0225     104.5612    1.9655      2.0E-4      23.0487     0.32        26.354      
5992.0      10.1012     102.3562    1.9558      2.0E-4      23.991      0.3145      28.0781     
5992.5      10.0776     107.0025    1.9488      2.0E-4      24.5875     0.32        30.918      
5993.0      10.1012     111.2707    1.9293      2.0E-4      25.1835     0.32        33.75       
5993.5      10.0586     115.35      1.9281      2.0E-4      25.5571     0.32        36.5938     
5994.0      10.0225     114.405     1.9281      2.0E-4      25.5522     0.32        39.4297     
5994.5      10.1012     116.1375    1.9357      2.0E-4      24.7858     0.32        42.2695     
5995.0      10.0225     117.3581    1.9511      2.0E-4      23.8241     0.32        46.1211     
5995.5      10.0225     117.555     1.9589      2.0E-4      20.6859     0.32        49.4805     
5996.0      10.0225     114.7987    1.9601      2.0E-4      19.3625     0.32        51.1816     
5996.5      10.0225     112.4362    1.9623      2.0E-4      19.2488     0.32        52.1122     
5997.0      9.9752      115.1925    1.924       2.0E-4      18.9333     0.32        50.4375     
5997.5      10.0225     111.4125    1.9034      2.0E-4      18.8384     0.32        47.3789     
5998.0      10.0778     112.5952    1.8744      2.0E-4      18.8382     0.32        42.8516     
5998.5      10.0382     114.5625    1.8736      2.0E-4      18.8379     0.32        38.1191     
5999.0      10.2236     114.2869    1.8863      2.0E-4      18.932      0.32        37.1797     
5999.5      10.5344     115.1334    1.9054      2.0E-4      18.9173     0.32        37.5879     
6000.0      10.3257     117.7519    1.9241      2.0E-4      18.8904     0.32        38.6851     
6000.5      10.117      118.5       1.9566      2.0E-4      18.8634     0.32        38.3862     
6001.0      10.0225     120.2522    2.0005      2.0E-4      18.8363     0.32        38.6201     
6001.5      10.2903     122.6737    2.0535      0.358       18.458      0.32        39.7041     
6002.0      10.4096     122.6737    2.1269      0.6017      17.6702     0.3027      40.7891     
6002.5      10.495      120.3637    2.1789      0.6497      15.4964     0.2911      42.4453     
6003.0      10.2175     109.05      2.2057      0.719       13.8895     0.0         47.2344     
6003.5      10.18       117.1612    2.2206      0.8802      13.1647     0.0         55.5391     
6004.0      10.1012     109.4831    2.2449      1.0         12.4203     0.0         63.5938     
6004.5      10.1361     108.8925    2.2604      1.0         11.8413     0.0         70.7461     
6005.0      10.1623     109.68      2.2695      1.0         11.1164     0.0         78.125      
6005.5      10.1886     106.9238    2.2695      1.0         10.738      -999.25     94.1562     
6006.0      10.2115     103.7737    2.2524      1.0         10.5908     -999.25     106.7891    
6006.5      10.18       107.0025    2.236       0.9938      10.4224     -999.25     112.1328    
6007.0      10.18       112.3463    2.2301      1.0         10.3276     -999.25     109.1367    
6007.5      10.18       115.35      2.226       1.0         10.7178     -999.25     104.6641    
6008.0      10.18       114.9562    2.2247      1.0         11.0519     -999.25     97.8984     
6008.5      10.18       115.7437    2.2225      1.0         11.3859     -999.25     94.2461     
6009.0      10.18       117.3188    2.2239      1.0         11.72       -999.25     92.1562     
6009.5      10.18       114.7987    2.2018      0.9832      12.2159     -999.25     90.0664     
6010.0      10.2364     115.98      2.1296      0.6545      12.5764     0.2719      87.9766     
6010.5      10.2844     114.405     2.0193      2.0E-4      13.3179     0.32        85.8848     
6011.0      10.3375     115.2312    1.9873      2.0E-4      14.105      0.32        81.8594     
6011.5      10.4714     117.3188    1.9264      2.0E-4      14.8292     0.32        71.0156     
6012.0      10.684      112.9875    1.9107      2.0E-4      15.9313     0.32        62.7578     
6012.5      10.81       109.4438    1.9168      2.0E-4      16.5583     0.32        55.2812     
6013.0      10.3375     107.7112    1.9239      2.0E-4      17.5846     0.32        47.5391     
6013.5      10.4163     108.2625    1.9329      2.0E-4      18.608      0.32        40.0742     
6014.0      10.495      105.7425    1.9617      2.0E-4      19.5526     0.32        35.3594     
6014.5      10.4163     103.5375    2.0589      0.135       25.4246     0.3021      33.9609     
6015.0      10.18       104.6765    2.069       0.2161      26.0497     0.2971      32.0625     
6015.5      10.2115     105.3487    2.0704      0.2402      26.4909     0.2973      27.7227     
6016.0      10.0729     103.1437    2.0618      0.1523      27.0868     0.2998      28.1768     
6016.5      10.0225     104.325     2.0357      0.0080      27.6164     0.32        28.7139     
6017.0      10.0225     103.7737    2.0208      2.0E-4      27.6129     0.319       29.8369     
6017.5      9.8965      104.325     2.0167      2.0E-4      27.6102     0.32        30.1663     
6018.0      9.8749      101.7854    2.008       2.0E-4      27.9342     0.312       30.4954     
6018.5      9.865       102.1987    2.0121      2.0E-4      28.2186     0.3134      30.7817     
6019.0      10.1076     102.5925    2.0169      2.0E-4      28.5448     0.3148      30.5735     
6019.5      10.2587     104.1675    2.0193      2.0E-4      28.9868     0.32        30.8408     
6020.0      10.6053     105.5063    2.016       2.0E-4      29.5046     0.32        31.104      
6020.5      10.0225     106.1625    2.0116      2.0E-4      30.1103     0.32        31.2495     
6021.0      10.0225     108.6956    2.0157      2.0E-4      30.1077     0.32        30.5869     
