#----------------------------------------------------------------------------
~VERSION INFORMATION
VERS.            2.0                  :CWLS LOG ASCII STANDARD -VERSION 2.0
WRAP.            NO                   :ONE LINE PER DEPTH STEP
#
#--------------------------------------------------------------------
~WELL INFORMATION
#MNEM .UNIT      DATA                 :DESCRIPTION OF MNEMONIC
#----------      ------------         -------------------------------
STRT  .ft        4901.0               :START DEPTH
STEP  .ft        0.5                  :STEP DEPTH
STOP  .ft        7991.0               :STOP DEPTH
NULL  .          -999.25              :NULL VALUE
WELL  .          Well_B               :WELL
XWELL .m          789112               :X POS
YWELL .m          123456               :Y POS
EDF   .          61.86                :DERICK FLOOR ELEVATION
#
#----------------------------------------------------------------------------
~CURVE INFORMATION
#MNEM.UNIT                                  :CURVE DESCRIPTION
#----------                                 -------------------------------
DEPT        .ft                             :DEPTH
CALF        .in                             :12  
SON3        .us/ft                          :10  
FDC         .g/cm3                          :7  
VSH         .fract                          :6  
RT          .ohm.m                          :4  
POR         .fract                          :3  
GR_NM       .API                            :1  
#
#----------------------------------------------------------------------------
~A          CALF        SON3        FDC         VSH         RT          POR         GR_NM       
# ...
7764.5      -999.25     97.8675     -999.25     -999.25     5.0659      0.2803      65.2168     
7765.0      -999.25     98.2612     -999.25     -999.25     5.0243      0.283       62.1359     
7765.5      -999.25     100.7025    -999.25     -999.25     5.003       0.2991      60.5763     
7766.0      -999.25     103.38      -999.25     -999.25     4.9506      0.3169      59.0166     
7766.5      -999.25     104.325     -999.25     -999.25     4.9087      0.32        65.8224     
7767.0      -999.25     103.1437    -999.25     -999.25     4.9005      0.3153      64.817      
7767.5      -999.25     101.6081    -999.25     -999.25     4.8906      0.3052      63.0768     
7768.0      -999.25     101.0175    -999.25     -999.25     4.8807      0.3013      61.5171     
7768.5      -999.25     100.23      -999.25     -999.25     4.8708      0.2961      59.9573     
7769.0      -999.25     100.6237    -999.25     -999.25     4.8609      0.2987      61.807      
7769.5      -999.25     99.8362     -999.25     -999.25     4.8462      0.2935      61.9552     
7770.0      -999.25     101.0175    -999.25     -999.25     4.8296      0.3013      62.1034     
7770.5      -999.25     100.23      -999.25     -999.25     4.7971      0.2962      63.9659     
7771.0      -999.25     101.3714    -999.25     -999.25     4.752       0.3037      66.2153     
7771.5      -999.25     102.1987    -999.25     -999.25     4.752       0.3092      69.2186     
7772.0      -999.25     98.655      -999.25     -999.25     4.7521      0.1677      73.3401     
7772.5      -999.25     98.2963     -999.25     -999.25     4.7522      0.1663      74.4519     
7773.0      -999.25     97.2375     -999.25     -999.25     4.7523      0.1622      77.4423     
7773.5      -999.25     97.937      -999.25     -999.25     4.7224      0.165       83.5006     
7774.0      -999.25     98.655      -999.25     -999.25     4.6901      0.1677      88.7985     
7774.5      -999.25     96.2925     -999.25     -999.25     4.6579      0.1586      102.0365    
7775.0      -999.25     95.8283     -999.25     -999.25     4.6256      0.1568      99.3424     
7775.5      -999.25     96.1744     -999.25     -999.25     4.5951      0.1581      97.4282     
7776.0      -999.25     96.521      -999.25     -999.25     4.5952      0.1595      83.1009     
7776.5      -999.25     96.0562     -999.25     -999.25     4.5953      0.1577      74.4966     
7777.0      -999.25     93.5362     -999.25     -999.25     4.5954      0.1479      72.3826     
7777.5      -999.25     94.3237     -999.25     -999.25     4.5955      0.1509      70.2686     
7778.0      -999.25     93.1425     -999.25     -999.25     4.5955      0.1464      70.2041     
7778.5      -999.25     93.3496     -999.25     -999.25     4.5015      0.1472      72.8402     
7779.0      -999.25     93.5362     -999.25     -999.25     4.382       0.1479      79.2723     
7779.5      -999.25     94.9931     -999.25     -999.25     4.2625      0.1536      81.8954     
7780.0      -999.25     97.08       -999.25     -999.25     4.143       0.1617      84.5249     
7780.5      -999.25     97.08       -999.25     -999.25     4.0235      0.1617      95.8745     
7781.0      -999.25     97.8675     -999.25     -999.25     3.904       0.1647      98.8908     
7781.5      -999.25     96.0562     -999.25     -999.25     3.8086      0.1577      101.9072    
7782.0      -999.25     95.505      -999.25     -999.25     3.6649      0.1556      112.5091    
7782.5      -999.25     96.6862     -999.25     -999.25     3.5454      0.1602      117.0206    
7783.0      -999.25     96.2925     -999.25     -999.25     3.4258      0.1586      116.9819    
7783.5      -999.25     97.4737     -999.25     -999.25     3.3364      0.1632      116.9433    
7784.0      -999.25     98.1431     -999.25     -999.25     3.116       0.1658      117.7939    
7784.5      -999.25     99.7575     -999.25     -999.25     2.864       0.1721      118.6446    
7785.0      -999.25     101.805     -999.25     -999.25     2.8641      0.1801      119.4953    
7785.5      -999.25     102.9863    -999.25     -999.25     2.8642      0.1847      121.3644    
7786.0      -999.25     103.38      -999.25     -999.25     2.8643      0.1862      123.2334    
7786.5      -999.25     102.5925    -999.25     -999.25     2.8644      0.1832      124.1486    
7787.0      -999.25     103.1437    -999.25     -999.25     2.8855      0.1853      125.0637    
7787.5      -999.25     102.591     -999.25     -999.25     2.917       0.1832      124.7672    
7788.0      -999.25     102.1987    -999.25     -999.25     2.9485      0.1817      124.4707    
7788.5      -999.25     96.2925     -999.25     -999.25     2.9801      0.1587      124.1742    
7789.0      -999.25     94.0875     -999.25     -999.25     3.0223      0.1501      122.9883    
7789.5      -999.25     93.93       -999.25     -999.25     3.0619      0.1495      120.2812    
7790.0      -999.25     97.2375     -999.25     -999.25     3.1169      0.1624      119.0954    
7790.5      -999.25     95.2688     -999.25     -999.25     3.117       0.1547      120.2168    
7791.0      -999.25     97.2375     -999.25     -999.25     3.0662      0.1624      121.3381    
7791.5      -999.25     100.3875    -999.25     -999.25     2.9998      0.1746      123.9548    
7792.0      -999.25     101.175     -999.25     -999.25     2.9597      0.1777      123.162     
7792.5      -999.25     99.9937     -999.25     -999.25     2.8384      0.1731      117.413     
7793.0      -999.25     98.655      -999.25     -999.25     2.7515      0.1679      113.9326    
7793.5      -999.25     101.805     -999.25     -999.25     2.7079      0.1802      116.5623    
7794.0      -999.25     101.805     -999.25     -999.25     2.4392      0.1802      118.6149    
7794.5      -999.25     103.38      -999.25     -999.25     2.2356      -999.25     120.6676    
7795.0      -999.25     102.1987    -999.25     -999.25     2.1364      -999.25     118.341     
7795.5      -999.25     102.4453    -999.25     -999.25     2.0217      -999.25     112.9722    
7796.0      -999.25     103.1831    -999.25     -999.25     1.8579      -999.25     110.855     
7796.5      -999.25     103.5375    -999.25     -999.25     1.8579      -999.25     108.7378    
7797.0      -999.25     103.9312    -999.25     -999.25     1.858       -999.25     107.5519    
7797.5      -999.25     104.7187    -999.25     -999.25     1.8581      -999.25     106.366     
7798.0      -999.25     104.1675    -999.25     -999.25     1.8798      -999.25     105.18      
7798.5      -999.25     104.64      -999.25     -999.25     1.9213      -999.25     108.9567    
7799.0      -999.25     105.0496    -999.25     -999.25     1.9214      -999.25     107.3712    
7799.5      -999.25     105.7425    -999.25     -999.25     1.912       -999.25     105.0703    
7800.0      -999.25     105.9       -999.25     -999.25     1.8976      -999.25     106.9457    
7800.5      -999.25     107.0812    -999.25     -999.25     1.8832      -999.25     104.9928    
7801.0      -999.25     108.8925    -999.25     -999.25     1.8688      -999.25     108.7439    
7801.5      -999.25     110.8613    -999.25     -999.25     1.8587      -999.25     107.5579    
7802.0      -999.25     110.9385    -999.25     -999.25     1.8588      -999.25     106.8855    
7802.5      -999.25     111.0187    -999.25     -999.25     1.8589      -999.25     106.213     
7803.0      -999.25     109.5858    -999.25     -999.25     1.859       -999.25     105.5405    
7803.5      -999.25     109.05      -999.25     -999.25     1.8947      -999.25     107.9505    
7804.0      -999.25     108.8925    -999.25     -999.25     1.9427      -999.25     110.3604    
7804.5      -999.25     108.8925    -999.25     -999.25     1.9906      -999.25     112.7703    
7805.0      -999.25     107.4462    -999.25     -999.25     2.0385      -999.25     115.1802    
7805.5      -999.25     106.2937    -999.25     -999.25     2.0799      -999.25     117.5901    
