#----------------------------------------------------------------------------
~VERSION INFORMATION
VERS.            2.0                  :CWLS LOG ASCII STANDARD -VERSION 2.0
WRAP.            NO                   :ONE LINE PER DEPTH STEP
#
#--------------------------------------------------------------------
~WELL INFORMATION
#MNEM .UNIT      DATA                 :DESCRIPTION OF MNEMONIC
#----------      ------------         -------------------------------
STRT  .ft        4901.0               :START DEPTH
STEP  .ft        0.5                  :STEP DEPTH
STOP  .ft        7991.0               :STOP DEPTH
NULL  .          -999.25              :NULL VALUE
WELL  .          Well_B               :WELL
XWELL .m          789112               :X POS
YWELL .m          123456               :Y POS
EDF   .          61.86                :DERICK FLOOR ELEVATION
#
#----------------------------------------------------------------------------
~CURVE INFORMATION
#MNEM.UNIT                                  :CURVE DESCRIPTION
#----------                                 -------------------------------
DEPT        .ft                             :DEPTH
CALF        .in                             :12  
SON3        .us/ft                          :10  
FDC         .g/cm3                          :7  
VSH         .fract                          :6  
RT          .ohm.m                          :4  
POR         .fract                          :3  
GR_NM       .API                            :1  
#
#----------------------------------------------------------------------------
~A          CALF        SON3        FDC         VSH         RT          POR         GR_NM       
# ...
5440.5      13.4606     118.9279    1.6156      2.0E-4      103.6523    0.32        37.5813     
5441.0      13.6495     122.4957    1.6316      2.0E-4      101.1833    0.32        36.9657     
5441.5      13.6763     125.7788    1.6263      2.0E-4      99.6776     0.32        36.35       
5442.0      13.2904     114.5959    1.6177      2.0E-4      94.3519     0.32        35.7344     
5442.5      13.346      114.9894    1.6223      2.0E-4      91.9567     0.32        35.7925     
5443.0      13.7281     123.6516    1.6255      2.0E-4      88.455      0.32        35.8505     
5443.5      13.712      123.0608    1.6283      2.0E-4      86.5227     0.32        35.9086     
5444.0      13.6966     120.8948    1.6747      2.0E-4      81.4123     0.32        36.0149     
5444.5      13.6729     126.5643    1.7683      2.0E-4      74.904      0.32        37.3853     
5445.0      13.1767     123.4083    1.8733      2.0E-4      72.3118     0.32        38.7558     
5445.5      13.7279     122.2327    1.9638      2.0E-4      69.1652     0.32        43.7434     
5446.0      13.3814     123.1414    1.9566      2.0E-4      65.4392     0.32        46.0679     
5446.5      13.6176     118.9246    1.912       2.0E-4      58.1832     0.32        48.3924     
5447.0      12.0741     124.0431    1.8671      2.0E-4      55.6075     0.32        50.7169     
5447.5      11.57       114.7501    1.8134      2.0E-4      52.6921     0.32        48.9055     
5448.0      11.908      115.1437    1.7967      2.0E-4      50.513      0.32        46.1968     
5448.5      12.3575     115.5766    1.7951      2.0E-4      47.7209     0.32        43.4881     
5449.0      12.1999     115.7731    1.8226      2.0E-4      44.73       0.32        40.7793     
5449.5      12.2786     119.5858    1.8613      2.0E-4      44.0247     0.32        39.307      
5450.0      12.0738     121.6789    1.9114      2.0E-4      42.8748     0.32        37.8348     
5450.5      11.176      123.411     1.9307      2.0E-4      41.7249     0.32        37.9122     
5451.0      11.491      120.5746    1.9307      2.0E-4      40.95       0.32        37.1372     
5451.5      11.6485     117.3466    1.9129      2.0E-4      39.5371     0.32        36.3623     
5452.0      11.3334     118.5277    1.8999      2.0E-4      38.43       0.32        35.5874     
5452.5      11.0972     117.74      1.9027      2.0E-4      38.1231     0.32        34.8125     
5453.0      11.0577     122.4646    1.8915      2.0E-4      37.8        0.32        34.0376     
5453.5      10.8136     117.5924    1.8841      2.0E-4      36.855      0.32        33.8373     
5454.0      10.9156     114.7466    1.8767      2.0E-4      36.5997     0.32        33.6371     
5454.5      11.097      121.8338    1.8693      2.0E-4      36.408      0.32        33.4369     
5455.0      11.8582     126.9521    1.8674      2.0E-4      36.225      0.32        33.4901     
5455.5      12.1207     122.4631    1.8767      2.0E-4      36.225      0.32        33.5434     
5456.0      12.0419     126.2206    1.8674      2.0E-4      36.225      0.32        33.5094     
5456.5      12.0523     130.3376    1.8608      2.0E-4      36.225      0.32        33.4754     
5457.0      11.9158     133.0934    1.8536      2.0E-4      35.28       0.32        33.4414     
5457.5      11.963      131.282     1.8476      2.0E-4      35.28       0.32        33.4074     
5458.0      12.593      131.2816    1.8383      2.0E-4      35.28       0.32        33.4702     
5458.5      12.6717     129.549     1.8337      2.0E-4      35.28       0.32        33.533      
5459.0      12.4354     127.7375    1.8337      2.0E-4      34.3138     0.32        33.7202     
5459.5      12.6716     126.7921    1.8389      2.0E-4      33.705      0.32        33.9073     
5460.0      11.703      123.6419    1.8465      2.0E-4      33.075      0.32        34.0945     
5460.5      11.5218     119.8616    1.8619      2.0E-4      31.8949     0.32        35.2664     
5461.0      11.569      120.8849    1.887       2.0E-4      30.555      0.32        35.967      
5461.5      10.9757     120.8847    1.9017      2.0E-4      28.35       0.32        36.6675     
5462.0      10.6554     116.9469    1.9307      2.0E-4      27.1293     0.32        37.368      
5462.5      10.8129     115.3717    1.9778      2.0E-4      25.515      0.32        34.772      
5463.0      11.8051     121.3564    2.0236      0.1584      24.1365     0.32        33.3047     
5463.5      11.3326     122.4586    2.0689      0.421       22.05       0.32        31.8373     
5464.0      10.9939     122.4583    2.1218      0.4382      20.5546     0.32        31.1786     
5464.5      10.6159     116.1579    2.2261      0.4838      19.215      0.3004      31.7935     
5465.0      10.4977     117.7327    2.3001      0.5241      14.0805     0.2996      32.4085     
5465.5      10.4662     120.0949    2.3158      0.5564      13.4383     0.3017      33.7741     
5466.0      10.4189     114.477     2.3158      0.5687      12.4798     0.2853      35.1396     
5466.5      10.4976     108.8329    2.2907      0.7012      11.5605     0.0         44.2729     
5467.0      10.6235     113.5578    2.2499      0.9056      10.08       0.0         56.796      
5467.5      10.6235     108.6749    2.1962      0.8977      9.6075      0.0         67.4964     
5468.0      10.7073     113.1634    2.1775      0.8632      9.2925      0.0         78.9152     
5468.5      10.7967     120.8806    2.1775      0.9482      9.1089      0.0         91.0702     
5469.0      10.8124     125.2116    2.198       1.0         8.9775      0.0         92.4406     
5469.5      10.8911     130.0151    2.2183      1.0         8.568       -999.25     93.8111     
5470.0      10.7808     133.4798    2.2331      1.0         8.4884      -999.25     91.2249     
5470.5      10.7808     134.6609    2.2413      1.0         8.4105      -999.25     88.2611     
5471.0      10.7807     130.8804    2.2369      1.0         8.4105      -999.25     85.6848     
5471.5      10.7807     126.8806    2.2128      1.0         8.4105      -999.25     86.3046     
5472.0      10.7806     121.8236    2.1571      0.8664      8.6308      -999.25     86.9243     
5472.5      10.7806     122.4533    2.1218      0.6915      8.883       -999.25     89.2292     
5473.0      10.7541     119.809     2.0721      0.3737      9.2281      0.3124      96.8806     
5473.5      10.7333     116.7041    1.9956      2.0E-4      9.5925      0.32        99.573      
5474.0      10.7105     111.0336    1.9383      2.0E-4      10.08       0.32        101.8782    
5474.5      10.7017     111.901     1.8999      2.0E-4      10.3973     0.32        112.5029    
5475.0      10.8119     113.002     1.905       2.0E-4      10.71       0.32        138.6532    
5475.5      11.0954     109.2215    1.9222      2.0E-4      11.5605     0.3196      148.1757    
5476.0      11.0953     108.7292    1.9189      2.0E-4      14.7105     0.3179      153.8997    
5476.5      11.0953     108.276     1.8775      2.0E-4      16.618      0.3169      139.2049    
5477.0      11.0953     113.7883    1.8202      2.0E-4      19.0575     0.32        123.7569    
5477.5      11.0952     114.7331    1.7594      2.0E-4      21.507      0.32        75.8144     
5478.0      11.1739     111.8977    1.7217      2.0E-4      23.373      0.32        55.0975     
5478.5      11.4889     110.5898    1.7427      2.0E-4      25.0541     0.32        54.0224     
5479.0      12.1189     110.4009    1.8255      2.0E-4      26.46       0.32        52.9472     
5479.5      12.4338     116.11      1.8855      2.0E-4      25.1583     0.32        51.872      
5480.0      11.6227     118.5116    1.9496      2.0E-4      23.5367     0.32        50.7968     
5480.5      11.5675     118.2751    2.045       0.2412      21.9151     0.32        49.7217     
5481.0      11.914      120.2436    2.1008      0.5998      20.0655     0.2963      45.6344     
5481.5      11.2261     114.1794    2.1327      0.6854      18.1755     0.2693      52.9758     
