#----------------------------------------------------------------------------
~VERSION INFORMATION
VERS.            2.0                  :CWLS LOG ASCII STANDARD -VERSION 2.0
WRAP.            NO                   :ONE LINE PER DEPTH STEP
#
#--------------------------------------------------------------------
~WELL INFORMATION
#MNEM .UNIT      DATA                 :DESCRIPTION OF MNEMONIC
#----------      ------------         -------------------------------
STRT  .ft        4901.0               :START DEPTH
STEP  .ft        0.5                  :STEP DEPTH
STOP  .ft        7991.0               :STOP DEPTH
NULL  .          -999.25              :NULL VALUE
WELL  .          Well_B               :WELL
XWELL .m          789112               :X POS
YWELL .m          123456               :Y POS
EDF   .          61.86                :DERICK FLOOR ELEVATION
#
#----------------------------------------------------------------------------
~CURVE INFORMATION
#MNEM.UNIT                                  :CURVE DESCRIPTION
#----------                                 -------------------------------
DEPT        .ft                             :DEPTH
CALF        .in                             :12  
SON3        .us/ft                          :10  
FDC         .g/cm3                          :7  
VSH         .fract                          :6  
RT          .ohm.m                          :4  
POR         .fract                          :3  
GR_NM       .API                            :1  
#
#----------------------------------------------------------------------------
~A          CALF        SON3        FDC         VSH         RT          POR         GR_NM       
# ...
6312.0      10.1304     100.6237    2.0934      0.2772      35.5199     0.2741      44.1436     
6312.5      10.1776     93.6937     2.1005      0.188       34.5713     0.2573      44.9033     
6313.0      9.9569      95.505      2.0756      0.0734      33.7588     0.2765      52.0547     
6313.5      9.9411      92.7487     2.0405      2.0E-4      32.9901     -999.25     69.8125     
6314.0      9.9725      96.0956     2.0421      2.0E-4      31.8232     -999.25     81.7891     
6314.5      9.9724      101.0175    2.0651      0.0788      30.7788     -999.25     80.8906     
6315.0      10.0196     99.4425     2.0821      0.156       30.1359     -999.25     77.1133     
6315.5      10.0982     109.05      2.0821      0.314       29.5341     -999.25     73.9062     
6316.0      10.0981     111.255     2.0851      0.3665      29.1956     -999.25     70.7617     
6316.5      10.1873     106.9238    2.0924      0.3506      28.2464     -999.25     65.3125     
6317.0      10.2554     105.8213    2.0994      0.3786      27.6143     -999.25     59.832      
6317.5      9.9718      101.4637    2.1048      0.3483      26.6661     -999.25     50.6094     
6318.0      10.0189     99.4546     2.1228      0.4187      24.5624     -999.25     43.2227     
6318.5      10.2866     97.511      2.1328      0.4335      21.9473     -999.25     45.2109     
6319.0      10.0975     97.08       2.143       0.4707      19.2976     -999.25     51.4062     
6319.5      10.2077     97.1587     2.1513      0.5033      17.9112     -999.25     60.8438     
6320.0      10.0826     96.2925     2.1441      0.4365      16.3674     -999.25     74.1406     
6320.5      9.9397      100.545     2.1328      0.4453      15.5797     -999.25     83.3516     
6321.0      9.8924      105.1716    2.0912      0.2903      14.6343     -999.25     88.8516     
6321.5      10.3332     107.3175    2.0543      0.1034      13.9408     -999.25     90.4531     
6322.0      10.7584     110.7825    2.0645      0.2223      13.5376     -999.25     85.2344     
6322.5      10.3331     115.4681    2.1017      0.5138      13.0584     -999.25     73.5781     
6323.0      10.1755     115.98      2.123       0.6496      12.05       -999.25     60.875      
6323.5      10.0494     118.1062    2.1529      0.836       11.3253     -999.25     54.9648     
6324.0      10.254      114.1687    2.1938      0.9039      11.0099     -999.25     57.9688     
6324.5      9.9704      113.4206    2.2328      1.0         10.6945     -999.25     66.2188     
6325.0      9.9703      104.325     2.2692      1.0         10.5368     -999.25     72.9219     
6325.5      9.9702      105.1125    2.2692      1.0         10.6308     -999.25     78.9453     
6326.0      9.9701      103.9312    2.2664      1.0         10.6306     -999.25     88.4688     
6326.5      9.97        104.955     2.2601      1.0         10.6303     -999.25     100.2813    
6327.0      9.9699      106.2937    2.2341      0.9844      10.7286     -999.25     103.4531    
6327.5      9.9857      106.1363    2.1976      0.8284      10.8501     -999.25     101.2578    
6328.0      10.017      107.3175    2.1533      0.6402      10.8499     -999.25     99.7832     
6328.5      10.0169     108.0788    2.1294      0.532       10.8497     -999.25     98.3086     
6329.0      10.0168     109.365     2.0942      0.3625      10.8492     -999.25     96.3789     
6329.5      10.0167     110.2312    2.0664      0.2204      10.8489     -999.25     90.5625     
6330.0      10.0166     109.68      2.0599      0.1837      10.806      -999.25     80.457      
6330.5      10.0165     109.8218    2.0627      0.2066      10.7536     -999.25     77.2148     
6331.0      10.0164     109.9524    2.1066      0.4629      10.6904     -999.25     75.8594     
6331.5      9.9691      111.4125    2.1568      0.74        10.4619     -999.25     78.9961     
6332.0      9.969       109.2862    2.2072      0.9386      10.312      -999.25     82.5391     
6332.5      9.9689      108.6956    2.2512      1.0         9.7445      -999.25     89.9922     
6333.0      9.9688      107.895     2.2746      1.0         8.5786      -999.25     95.6328     
6333.5      9.9687      106.53      2.283       1.0         8.4661      -999.25     101.7656    
6334.0      9.9686      102.4744    2.29        1.0         8.2742      -999.25     109.4258    
6334.5      9.9685      100.7812    2.3022      1.0         8.0823      -999.25     114.0195    
6335.0      9.9887      102.3562    2.3022      0.9976      7.8904      -999.25     118.3447    
6335.5      10.003      101.805     2.3022      0.9948      7.6951      -999.25     118.6641    
6336.0      10.0154     102.785     2.3022      1.0         7.1592      -999.25     115.5664    
6336.5      9.968       103.5769    2.3001      1.0         7.0203      -999.25     111.4453    
6337.0      9.9778      106.0181    2.2973      1.0         6.7491      -999.25     107.2109    
6337.5      9.9897      107.3175    2.2448      1.0         6.5638      -999.25     105.3281    
6338.0      10.0016     107.9475    2.1726      0.739       6.2974      -999.25     103.292     
6338.5      10.0149     109.68      2.1121      0.4578      6.1183      -999.25     104.0601    
6339.0      10.0148     109.2862    2.0541      0.1165      5.9059      -999.25     104.4697    
6339.5      10.5188     110.625     2.0586      0.1631      5.8027      -999.25     104.832     
6340.0      10.7391     110.2312    2.0862      0.3231      5.759       -999.25     102.2266    
6340.5      10.9123     121.0791    2.1129      0.6195      5.7391      -999.25     97.0156     
6341.0      10.8807     125.0362    2.1394      0.8069      5.689       -999.25     94.0273     
6341.5      10.9594     126.6112    2.1653      0.9569      5.6438      -999.25     89.9844     
6342.0      10.8018     124.5244    2.1898      1.0         5.6435      -999.25     87.6875     
6342.5      10.1874     118.7362    2.199       1.0         5.6432      -999.25     85.1016     
6343.0      9.9668      115.0708    2.1915      0.9538      5.4936      -999.25     78.1484     
6343.5      10.0139     112.5937    2.186       0.897       5.2645      -999.25     76.7285     
6344.0      9.9666      100.8994    2.1785      0.6839      5.071       -999.25     75.8164     
6344.5      9.9851      94.7175     2.1711      0.4942      4.8545      -999.25     74.9062     
6345.0      9.9983      93.3        2.1249      0.2708      4.913       -999.25     82.3984     
6345.5      10.0135     96.2925     2.0914      0.1289      4.9484      -999.25     97.5469     
6346.0      10.2812     103.8525    2.0736      0.1537      5.0483      -999.25     101.5938    
6346.5      10.5174     109.8769    2.0626      0.179       5.1053      -999.25     102.3984    
6347.0      10.722      116.2556    2.0742      0.3346      5.1679      -999.25     102.9897    
6347.5      10.9109     119.1825    2.094       0.4866      5.0129      -999.25     102.2275    
6348.0      10.8793     125.9812    2.1339      0.7824      4.7891      -999.25     100.3652    
6348.5      10.8096     124.945     2.1573      0.8909      4.5298      -999.25     98.3008     
6349.0      10.6192     120.285     2.2148      1.0         4.2217      -999.25     96.2363     
6349.5      10.123      115.665     2.2662      0.9981      3.8432      -999.25     94.168      
6350.0      10.0127     108.8925    2.2894      0.8741      3.7484      -999.25     92.1035     
6350.5      9.9338      104.4037    2.279       0.7271      3.5914      -999.25     93.4688     
6351.0      9.9337      103.1831    2.2735      0.6564      3.4329      -999.25     97.9922     
6351.5      10.0911     101.805     2.2661      0.5234      3.0073      -999.25     100.9336    
6352.0      10.0816     99.4425     2.2607      0.3981      2.7392      -999.25     98.9922     
6352.5      10.0437     101.6869    2.2527      0.4585      2.7391      -999.25     91.0        
6353.0      10.0435     104.7975    2.2598      0.6327      3.0853      -999.25     87.1826     
