#----------------------------------------------------------------------------
~VERSION INFORMATION
VERS.            2.0                  :CWLS LOG ASCII STANDARD -VERSION 2.0
WRAP.            NO                   :ONE LINE PER DEPTH STEP
#
#--------------------------------------------------------------------
~WELL INFORMATION
#MNEM .UNIT      DATA                 :DESCRIPTION OF MNEMONIC
#----------      ------------         -------------------------------
STRT  .ft        4901.0               :START DEPTH
STEP  .ft        0.5                  :STEP DEPTH
STOP  .ft        7991.0               :STOP DEPTH
NULL  .          -999.25              :NULL VALUE
WELL  .          Well_B               :WELL
XWELL .m          789112               :X POS
YWELL .m          123456               :Y POS
EDF   .          61.86                :DERICK FLOOR ELEVATION
#
#----------------------------------------------------------------------------
~CURVE INFORMATION
#MNEM.UNIT                                  :CURVE DESCRIPTION
#----------                                 -------------------------------
DEPT        .ft                             :DEPTH
CALF        .in                             :12  
SON3        .us/ft                          :10  
FDC         .g/cm3                          :7  
VSH         .fract                          :6  
RT          .ohm.m                          :4  
POR         .fract                          :3  
GR_NM       .API                            :1  
#
#----------------------------------------------------------------------------
~A          CALF        SON3        FDC         VSH         RT          POR         GR_NM       
# ...
6685.5      11.2854     117.555     2.1311      0.6708      2.9071      -999.25     98.3496     
6686.0      11.5215     117.4762    2.1481      0.7583      2.9068      -999.25     96.5801     
6686.5      11.6001     116.7675    2.1432      0.7287      2.9065      -999.25     93.2891     
6687.0      11.5213     116.1375    2.1446      0.7296      2.9062      -999.25     91.4023     
6687.5      11.5212     115.1925    2.1412      0.7014      2.906       -999.25     90.1016     
6688.0      11.4424     116.6362    2.133       0.6788      2.9552      -999.25     89.7909     
6688.5      11.5052     116.7675    2.1264      0.6458      2.9997      -999.25     89.8138     
6689.0      11.5742     115.1925    2.1277      0.6323      3.0835      -999.25     89.8366     
6689.5      11.7334     115.2685    2.1319      0.6546      3.2195      -999.25     90.4023     
6690.0      11.8358     116.7675    2.1369      0.6985      3.3023      -999.25     91.1729     
6690.5      11.1269     115.1925    2.1666      0.8247      3.4084      -999.25     91.5405     
6691.0      11.2055     114.3395    2.2098      1.0         3.4708      -999.25     91.7441     
6691.5      10.8116     112.83      2.2517      1.0         3.4704      -999.25     92.2119     
6692.0      10.8116     114.0113    2.3394      1.0         3.4699      0.0         92.793      
6692.5      10.8429     112.2394    2.411       1.0         3.4697      0.0         92.2148     
6693.0      10.7641     108.4987    2.4167      1.0         3.4693      0.0         89.3281     
6693.5      10.6621     99.031      2.398       1.0         3.5607      0.0         84.0625     
6694.0      10.5299     90.0712     2.281       0.7663      3.6894      0.0         78.5703     
6694.5      10.4173     79.7222     2.2138      0.301       4.3967      0.1727      65.8906     
6695.0      10.496      75.4238     2.2074      0.062       5.2005      0.1765      49.8594     
6695.5      10.5747     67.9425     2.231       2.0E-4      6.031       0.1325      41.0938     
6696.0      10.4486     70.7748     2.24        2.0E-4      7.5625      0.1534      40.5312     
6696.5      10.4957     74.5837     2.249       0.3294      8.8223      0.1415      45.0391     
6697.0      10.338      82.3537     2.2344      0.5661      10.3025     0.1596      51.5391     
6697.5      10.338      92.355      2.2058      0.6612      11.5621     0.1948      63.1875     
6698.0      10.3379     100.23      2.1902      0.7269      12.7252     0.0         75.25       
6698.5      10.2118     97.4737     2.1752      0.602       13.9238     0.2193      81.082      
6699.0      10.2472     96.2925     2.1571      0.487       13.8605     0.2268      86.9453     
6699.5      10.2903     99.3362     2.1438      0.4727      13.8093     0.2394      90.4429     
6700.0      10.272      101.0175    2.121       0.3837      13.7656     0.2556      90.833      
6700.5      10.2519     100.2584    2.0811      0.1542      14.1287     0.2798      86.0469     
6701.0      10.2273     99.6577     2.0596      0.023       14.3891     0.2935      79.9727     
6701.5      10.1486     99.0488     2.0352      2.0E-4      14.9471     0.2947      75.2188     
6702.0      10.0699     100.5056    2.0287      2.0E-4      15.9079     0.3006      71.8574     
6702.5      9.9912      101.0962    2.0411      2.0E-4      16.6011     0.3039      64.2344     
6703.0      10.1645     104.01      2.0578      0.1125      17.2312     0.3028      55.1016     
6703.5      10.3378     105.7425    2.0755      0.2504      18.5701     0.2935      51.1406     
6704.0      10.0858     104.1675    2.0811      0.2568      18.9905     0.2874      52.2461     
6704.5      10.0701     105.5063    2.0836      0.2879      19.4838     0.2876      56.6016     
6705.0      9.9126      101.91      2.0841      0.2309      23.6369     0.2816      57.8477     
6705.5      9.9127      101.3685    2.0841      0.2267      23.6385     0.2809      53.3281     
6706.0      9.9127      98.0512     2.0664      0.068       23.8427     0.2873      50.2334     
6706.5      9.9521      96.6862     2.0616      0.0137      24.2706     0.2882      50.8179     
6707.0      10.1018     99.9937     2.055       0.0293      25.0044     0.2984      53.8594     
6707.5      10.1018     99.9937     2.0349      2.0E-4      25.8762     0.3008      58.9883     
6708.0      9.9444      100.7025    2.0198      2.0E-4      26.794      0.3031      61.0439     
6708.5      9.9917      102.5925    2.0149      2.0E-4      27.0472     0.31        59.2617     
6709.0      10.0232     101.9625    2.0096      2.0E-4      27.4268     0.309       52.1406     
6709.5      10.0705     106.53      2.0118      2.0E-4      27.4275     0.32        44.6094     
6710.0      10.3068     104.1675    2.0126      2.0E-4      27.4286     0.3182      42.5566     
6710.5      10.3068     105.7425    2.0131      2.0E-4      27.4298     0.32        43.5469     
6711.0      10.3069     104.1675    2.0131      2.0E-4      27.431      0.3176      46.0391     
6711.5      10.2597     103.7737    2.0147      2.0E-4      27.4317     0.3165      44.9062     
6712.0      10.2452     105.7425    2.0251      2.0E-4      27.4334     0.32        43.2324     
6712.5      10.2282     101.3078    2.0324      2.0E-4      27.4346     0.3082      42.9375     
6713.0      10.2283     100.23      2.039       2.0E-4      27.4356     0.3041      44.6445     
6713.5      10.2283     101.2144    2.045       2.0E-4      27.9538     0.3072      46.8711     
6714.0      10.2284     103.38      2.045       0.0274      28.4335     0.311       50.9141     
6714.5      10.2414     105.1125    2.045       0.0498      29.0145     0.3135      55.8672     
6715.0      10.3229     103.7737    2.0578      0.1062      29.4734     0.3023      57.543      
6715.5      10.6222     105.3487    2.0932      0.3414      30.055      0.2811      55.5469     
6716.0      10.701      103.8121    2.1041      0.3811      30.6366     0.272       52.3594     
6716.5      10.7707     101.9625    2.1057      0.3639      31.2182     0.2683      48.1484     
6717.0      10.8586     103.38      2.1057      0.391       31.5396     0.2707      44.8398     
6717.5      10.835      101.4112    2.1038      0.3504      31.8564     0.2688      42.5693     
6718.0      10.8114     100.7812    2.0883      0.2515      32.1731     0.2776      43.9394     
6718.5      10.5579     98.2243     2.0883      0.204       32.5046     0.2732      46.1953     
6719.0      10.4965     95.1113     2.0841      0.1208      33.1045     0.2704      46.9629     
6719.5      10.465      94.3237     2.0722      0.0388      33.7512     0.2769      44.6211     
6720.0      10.6226     95.505      2.0722      0.0638      33.7528     0.2791      42.7217     
6720.5      10.6226     94.468      2.0944      0.17        33.1961     0.2627      43.9258     
6721.0      10.6542     96.474      2.1111      0.2984      32.1797     0.2558      46.1377     
6721.5      10.6227     98.6156     2.1432      0.5056      30.6063     0.2404      46.2188     
6722.0      10.6733     99.9937     2.1812      0.6211      29.2192     0.2327      43.2852     
6722.5      10.7803     101.4112    2.2486      0.5956      26.8279     0.2409      39.8945     
6723.0      10.7485     99.8887     2.2882      0.5682      25.254      0.2388      37.6328     
6723.5      10.1031     91.1344     2.2543      0.5031      24.87       0.2116      35.9473     
6724.0      10.1031     80.5425     2.1467      0.1391      24.5839     0.201       34.5898     
6724.5      10.2607     75.8175     2.0611      2.0E-4      24.3128     0.1889      33.5137     
6725.0      10.3867     70.0687     2.0382      2.0E-4      25.5745     0.1495      33.585      
6725.5      10.5443     71.5912     2.0358      2.0E-4      26.773      0.1603      34.6445     
6726.0      10.7333     74.4787     2.0412      2.0E-4      27.4659     0.1798      36.0586     
6726.5      10.7019     83.909      2.0494      2.0E-4      31.2487     0.2346      37.3193     
