#----------------------------------------------------------------------------
~VERSION INFORMATION
VERS.            2.0                  :CWLS LOG ASCII STANDARD -VERSION 2.0
WRAP.            NO                   :ONE LINE PER DEPTH STEP
#
#--------------------------------------------------------------------
~WELL INFORMATION
#MNEM .UNIT      DATA                 :DESCRIPTION OF MNEMONIC
#----------      ------------         -------------------------------
STRT  .ft        4901.0               :START DEPTH
STEP  .ft        0.5                  :STEP DEPTH
STOP  .ft        7991.0               :STOP DEPTH
NULL  .          -999.25              :NULL VALUE
WELL  .          Well_B               :WELL
XWELL .m          789112               :X POS
YWELL .m          123456               :Y POS
EDF   .          61.86                :DERICK FLOOR ELEVATION
#
#----------------------------------------------------------------------------
~CURVE INFORMATION
#MNEM.UNIT                                  :CURVE DESCRIPTION
#----------                                 -------------------------------
DEPT        .ft                             :DEPTH
CALF        .in                             :12  
SON3        .us/ft                          :10  
FDC         .g/cm3                          :7  
VSH         .fract                          :6  
RT          .ohm.m                          :4  
POR         .fract                          :3  
GR_NM       .API                            :1  
#
#----------------------------------------------------------------------------
~A          CALF        SON3        FDC         VSH         RT          POR         GR_NM       
# ...
6519.5      10.0108     98.655      2.0866      0.1938      9.9416      0.2748      53.542      
6520.0      10.0107     101.0175    2.0927      0.2703      9.8523      0.2748      53.0625     
6520.5      10.0106     102.7762    2.0989      0.3288      9.7323      0.2735      58.2031     
6521.0      10.0105     105.4275    2.1245      0.5044      9.6258      0.2616      63.293      
6521.5      10.0104     106.3961    2.1245      0.5153      9.4477      0.2629      67.0898     
6522.0      9.9788      108.4987    2.1358      0.6029      9.2877      0.2591      69.7715     
6522.5      10.0641     107.8687    2.1395      0.6107      9.1277      0.256       71.4902     
6523.0      10.1361     110.4675    2.1551      0.7247      8.9946      0.0         73.2118     
6523.5      10.2462     110.1525    2.1505      0.6976      8.9165      0.2528      73.241      
6524.0      10.2272     109.66      2.1446      0.6623      8.8363      0.2555      72.1553     
6524.5      10.2146     108.6956    2.1426      0.6402      8.7233      0.2554      69.9414     
6525.0      10.1357     108.105     2.1392      0.6229      8.5206      0.2569      61.9375     
6525.5      10.1078     109.2862    2.1425      0.662       8.3852      0.2569      57.4531     
6526.0      10.0883     107.7112    2.146       0.6614      8.0475      0.2528      53.0742     
6526.5      10.1354     127.95      2.1697      0.7728      7.9055      0.0         49.3008     
6527.0      10.214      104.955     2.1783      0.7391      7.7321      0.0         49.6953     
6527.5      10.2455     107.0812    2.2253      0.7738      7.4869      0.0         50.2993     
6528.0      10.2926     105.3487    2.2623      0.8384      7.3534      0.0         53.5547     
6528.5      10.2137     104.5612    2.2623      0.9586      7.15        0.0         60.8594     
6529.0      10.2137     108.8925    2.2534      1.0         6.9431      0.0         67.3984     
6529.5      10.2136     107.3175    2.1876      0.832       6.7916      0.0         73.5078     
6530.0      10.2135     105.9       2.1508      0.632       6.5667      0.2464      76.4961     
6530.5      10.2134     104.5612    2.1391      0.5592      6.3419      0.2514      69.9531     
6531.0      10.2133     102.5925    2.1529      0.6066      6.117       0.2408      60.7344     
6531.5      10.1344     104.1675    2.1805      0.7574      5.8921      0.0         50.8438     
6532.0      10.1343     103.1437    2.2011      0.7141      5.6673      0.0         47.8672     
6532.5      10.1343     106.32      2.209       0.8486      5.5236      0.0         55.2734     
6533.0      10.1656     108.8925    2.1749      0.8124      5.2083      0.0         59.043      
6533.5      10.2225     108.105     2.131       0.5714      4.7354      0.2613      70.5781     
6534.0      10.2914     109.9556    2.072       0.2657      4.3571      0.3009      75.6992     
6534.5      10.4016     111.6487    2.0142      2.0E-4      4.1048      0.32        82.7031     
6535.0      10.9931     111.255     1.9892      2.0E-4      3.5689      0.32        92.2109     
6535.5      11.9449     110.8613    2.0116      2.0E-4      3.159       0.32        98.2734     
6536.0      12.4488     116.4919    2.04        0.1338      3.0195      0.32        97.6465     
6536.5      12.3699     121.9965    2.0556      0.301       2.7531      0.32        95.7871     
6537.0      12.3384     124.4062    2.0731      0.436       2.5282      0.317       94.248      
6537.5      12.606      123.4612    2.0773      0.4517      2.402       -999.25     92.7773     
6538.0      12.7319     125.8237    2.0817      0.5033      2.2929      -999.25     93.126      
6538.5      12.2199     126.7687    2.0895      0.561       2.2123      -999.25     90.9219     
6539.0      12.1017     119.5237    2.0766      0.4064      2.2119      -999.25     87.9414     
6539.5      12.1016     114.0506    2.067       0.2803      2.2117      -999.25     87.0151     
6540.0      12.0228     112.5937    2.0787      0.3301      2.2113      -999.25     86.6665     
6540.5      12.1014     114.405     2.0956      0.4391      2.2109      -999.25     87.4795     
6541.0      11.9438     112.83      2.1129      0.4522      2.2107      -999.25     88.6475     
6541.5      11.7247     116.6362    2.1223      0.542       2.2104      -999.25     92.3789     
6542.0      11.6601     119.9175    2.121       0.591       2.21        -999.25     95.6719     
6542.5      11.8123     118.9134    2.1081      0.5336      2.2097      -999.25     98.5195     
6543.0      11.9343     117.4762    2.0816      0.3929      2.2094      -999.25     103.75      
6543.5      12.0221     116.5312    2.0527      0.2072      2.2091      -999.25     104.084     
6544.0      12.1008     117.555     2.0232      0.0335      2.2088      -999.25     102.2188    
6544.5      11.8959     116.3737    1.9838      2.0E-4      2.2084      -999.25     99.4727     
6545.0      12.3131     117.87      1.9596      2.0E-4      2.2081      -999.25     96.3672     
6545.5      12.3367     118.1062    1.9475      2.0E-4      2.208       -999.25     93.2656     
6546.0      11.6593     116.925     1.9453      2.0E-4      2.0915      -999.25     91.2734     
6546.5      12.1002     116.5312    1.9567      2.0E-4      2.0499      -999.25     89.7871     
6547.0      12.5254     117.5156    1.9935      2.0E-4      1.9312      -999.25     86.6602     
6547.5      11.9425     118.1062    2.033       0.1236      1.851       -999.25     84.7559     
6548.0      12.2732     118.3425    2.0629      0.207       1.7336      -999.25     86.2305     
6548.5      12.4936     114.405     2.0611      0.1276      1.7334      -999.25     87.6729     
6549.0      12.525      113.6175    2.0657      0.1274      1.7331      -999.25     86.4961     
6549.5      12.4933     115.7488    2.0774      0.2053      1.7328      -999.25     83.7852     
6550.0      12.5248     115.98      2.0669      0.1681      1.7108      -999.25     81.2773     
6550.5      12.4932     116.7675    2.064       0.1608      1.6866      -999.25     81.1016     
6551.0      12.6033     118.4212    2.0511      0.1349      1.669       -999.25     82.1416     
6551.5      12.7292     121.2563    2.0383      0.1323      1.6684      -999.25     83.1807     
6552.0      12.7291     119.9175    2.0218      0.0489      1.6805      -999.25     84.9824     
6552.5      12.7291     121.65      2.0125      0.0285      1.702       -999.25     87.2773     
6553.0      12.6266     122.8706    2.0074      0.0038      1.7305      -999.25     91.1562     
6553.5      12.4086     124.6031    2.0074      0.0212      1.7818      -999.25     93.2133     
6554.0      12.398      125.43      2.0218      0.1286      1.8581      -999.25     92.1426     
6554.5      12.3664     124.0125    2.0443      0.2614      1.9344      -999.25     89.2188     
6555.0      12.3348     121.4925    2.0611      0.3215      1.9815      -999.25     86.7578     
6555.5      12.6024     123.4612    2.0764      0.4548      2.14        -999.25     85.0723     
6556.0      12.4921     124.2487    2.0939      0.5594      2.2547      -999.25     86.1445     
6556.5      12.4133     119.7055    2.115       0.5689      2.3584      -999.25     90.0938     
6557.0      12.4446     119.2875    2.1591      0.6999      2.4893      -999.25     94.4688     
6557.5      12.2083     118.8937    2.1954      0.7985      2.6087      -999.25     95.1211     
6558.0      12.4129     119.0536    2.225       0.8761      2.6726      -999.25     90.7344     
6558.5      12.0348     119.9175    2.2688      0.9885      2.7666      -999.25     87.0801     
6559.0      11.6567     118.4212    2.3346      1.0         2.9474      -999.25     85.6055     
6559.5      10.2628     108.4791    2.3624      0.9506      3.1441      -999.25     84.1328     
6560.0      10.05       99.5886     2.3272      0.7949      3.7079      0.0         82.0977     
6560.5      10.0196     93.5362     2.1954      0.4843      4.0884      0.2173      79.1172     
