#----------------------------------------------------------------------------
~VERSION INFORMATION
VERS.            2.0                  :CWLS LOG ASCII STANDARD -VERSION 2.0
WRAP.            NO                   :ONE LINE PER DEPTH STEP
#
#--------------------------------------------------------------------
~WELL INFORMATION
#MNEM .UNIT      DATA                 :DESCRIPTION OF MNEMONIC
#----------      ------------         -------------------------------
STRT  .ft        4901.0               :START DEPTH
STEP  .ft        0.5                  :STEP DEPTH
STOP  .ft        7991.0               :STOP DEPTH
NULL  .          -999.25              :NULL VALUE
WELL  .          Well_B               :WELL
XWELL .m          789112               :X POS
YWELL .m          123456               :Y POS
EDF   .          61.86                :DERICK FLOOR ELEVATION
#
#----------------------------------------------------------------------------
~CURVE INFORMATION
#MNEM.UNIT                                  :CURVE DESCRIPTION
#----------                                 -------------------------------
DEPT        .ft                             :DEPTH
CALF        .in                             :12  
SON3        .us/ft                          :10  
FDC         .g/cm3                          :7  
VSH         .fract                          :6  
RT          .ohm.m                          :4  
POR         .fract                          :3  
GR_NM       .API                            :1  
#
#----------------------------------------------------------------------------
~A          CALF        SON3        FDC         VSH         RT          POR         GR_NM       
# ...
7183.5      9.8178      99.4425     2.0567      0.0273      7.7622      0.2962      56.1968     
7184.0      9.8178      100.23      2.0646      0.089       7.7024      0.292       56.3238     
7184.5      9.8178      100.6237    2.0704      0.1308      7.643       0.2887      56.451      
7185.0      9.8178      99.9937     2.0678      0.1021      7.5949      0.2894      58.0801     
7185.5      9.8178      99.6        2.0646      0.0746      7.5471      0.2908      59.8008     
7186.0      9.8178      99.4425     2.0618      0.0544      7.4858      0.2925      59.9472     
7186.5      9.865       99.9937     2.0646      0.0813      7.5203      0.2914      59.9733     
7187.0      9.865       99.6        2.0675      0.0928      7.5683      0.2888      58.9922     
7187.5      9.865       99.2063     2.0675      0.0822      7.6163      0.288       62.332      
7188.0      9.865       99.6        2.0618      0.0519      7.6437      0.2925      64.7246     
7188.5      9.865       99.2063     2.0553      2.0E-4      7.763       0.2961      69.6484     
7189.0      9.865       99.0488     2.0544      2.0E-4      7.8464      0.2954      70.5957     
7189.5      9.865       98.3925     2.0544      2.0E-4      7.8961      0.2937      65.7812     
7190.0      9.865       97.6312     2.0544      2.0E-4      7.9299      0.291       65.1176     
7190.5      9.865       98.4187     2.0601      0.02        7.9594      0.2917      65.1524     
7191.0      9.865       99.0488     2.0681      0.0799      7.9595      0.2872      65.1872     
7191.5      9.865       99.4425     2.0734      0.115       7.9596      0.2843      67.7734     
7192.0      9.865       99.4425     2.0883      0.1992      7.9598      0.2743      70.0039     
7192.5      9.865       101.175     2.0895      0.2338      7.9599      0.2763      72.0859     
7193.0      9.8717      100.2218    2.0853      0.1941      7.96        0.2776      71.2266     
7193.5      9.8776      99.4425     2.0865      0.1909      7.9601      0.2756      68.0859     
7194.0      9.8836      97.6312     2.0853      0.1553      7.9602      0.2734      64.5938     
7194.5      9.8896      97.8675     2.0775      0.1186      7.9603      0.2791      60.9453     
7195.0      9.8965      97.0493     2.0675      0.0454      7.9604      0.2844      60.2782     
7195.5      9.865       95.8987     2.0704      0.0382      7.9606      0.2802      62.9766     
7196.0      9.8178      95.9775     2.0687      0.0262      7.9607      0.2815      65.7812     
7196.5      9.8078      96.5903     2.0646      0.0144      7.9608      0.2853      64.9316     
7197.0      9.7863      96.8437     2.069       0.0478      7.9609      0.2829      62.5156     
7197.5      9.7863      97.08       2.0716      0.0744      7.961       0.2818      56.5312     
7198.0      9.7863      97.6312     2.0793      0.132       7.9612      0.2778      54.332      
7198.5      9.7863      98.2612     2.0913      0.2116      7.9612      0.271       55.3086     
7199.0      9.7863      98.5233     2.1018      0.2733      7.9614      0.2646      57.1074     
7199.5      9.8409      98.8125     2.1053      0.293       7.9615      0.2628      61.2109     
7200.0      9.8965      98.2564     2.1081      0.2943      7.9616      0.2599      65.0898     
7200.5      9.8965      97.8675     2.0975      0.2213      7.9617      0.2657      71.5234     
7201.0      9.8965      96.6862     2.0871      0.1377      7.9619      0.2702      74.1543     
7201.5      9.8364      97.6312     2.0763      0.0994      7.962       0.2792      68.1797     
7202.0      9.7863      97.9928     2.0716      0.0852      7.9621      0.2832      61.9141     
7202.5      9.7863      98.4187     2.0823      0.1569      7.9622      0.2769      60.4194     
7203.0      9.7863      98.8125     2.1114      0.327       7.9623      0.259       60.5377     
7203.5      9.7963      99.9937     2.1263      0.427       7.9625      0.252       60.656      
7204.0      9.8083      101.3581    2.1606      0.6223      7.9626      0.2346      61.582      
7204.5      9.8178      101.9625    2.1979      0.8047      7.9627      0.0         62.8887     
7205.0      9.8178      99.4425     2.2137      0.8293      7.9628      0.0         64.0713     
7205.5      9.8965      97.6312     2.2178      0.8129      7.9629      0.0         65.1943     
7206.0      9.8965      95.3081     2.2097      0.7316      7.963       0.0         68.0352     
7206.5      9.865       93.93       2.194       0.6289      7.8791      0.2033      73.9766     
7207.0      9.865       93.1425     2.1879      0.5784      7.8058      0.2047      80.3906     
7207.5      9.865       92.7487     2.1995      0.6179      7.7037      0.1979      84.5        
7208.0      9.865       93.5362     2.1995      0.6299      7.5898      0.1992      87.9688     
7208.5      9.865       95.82       2.1953      0.6517      7.4759      0.2055      91.4883     
7209.0      9.865       97.8675     2.1815      0.6257      7.362       0.2162      92.7969     
7209.5      9.865       98.4401     2.1715      0.5893      7.2481      0.2225      92.7906     
7210.0      9.865       98.8125     2.1679      0.5786      7.1764      0.2251      92.7843     
7210.5      9.865       100.6237    2.1715      0.6276      7.0671      0.2261      92.8882     
7211.0      9.865       103.38      2.1767      0.6978      7.0192      0.2278      93.0686     
7211.5      9.865       100.6237    2.1789      0.6611      7.0193      0.2222      93.8984     
7212.0      9.865       99.8362     2.1585      0.549       7.0195      0.2318      95.209      
7212.5      9.865       99.0488     2.1329      0.4077      7.0196      0.2451      94.5039     
7213.0      9.865       100.6237    2.1197      0.3682      7.0197      0.2557      92.4473     
7213.5      9.865       100.8906    2.1165      0.3576      7.0198      0.2582      90.5605     
7214.0      9.865       102.75      2.1185      0.4016      6.9931      0.26        88.877      
7214.5      9.842       102.2028    2.1197      0.4006      6.974       0.2584      87.3652     
7215.0      9.802       101.4112    2.1113      0.3431      6.9572      0.2623      86.6459     
7215.5      9.7863      100.2819    2.1173      0.3559      6.9209      0.2568      86.637      
7216.0      9.7863      98.9309     2.123       0.3607      6.8884      0.2511      88.082      
7216.5      9.7863      97.8675     2.1585      0.5186      6.863       0.2286      90.8984     
7217.0      9.7863      96.2925     2.1715      0.5483      6.717       0.2186      94.0898     
7217.5      9.7863      97.1587     2.1789      0.5952      6.5483      0.2161      97.6523     
7218.0      9.7863      98.7337     2.194       0.6889      6.4071      0.2108      101.4922    
7218.5      9.7635      99.0488     2.2015      0.7239      6.1676      0.0         105.082     
7219.0      9.739       98.655      2.2178      0.7848      5.9282      0.0         107.4609    
7219.5      9.8965      96.6862     2.2178      0.747       5.7612      0.0         109.1484    
7220.0      9.865       95.505      2.2178      0.7216      4.9738      0.0         111.9531    
7220.5      9.9438      97.4737     2.2137      0.7379      4.3439      0.0         114.8926    
7221.0      10.0776     97.4737     2.2153      0.7432      4.0002      0.0         116.3906    
7221.5      10.3375     100.058     2.2137      0.7825      3.7417      0.0         116.3203    
7222.0      10.2903     102.7762    2.2215      0.8638      3.4938      0.0         114.2441    
7222.5      10.5738     110.625     2.226       0.9503      3.179       0.0         112.1699    
7223.0      10.18       107.8687    2.2343      1.0         3.0225      0.0         110.0938    
7223.5      10.3296     109.995     2.2516      1.0         2.8071      0.0         106.3906    
7224.0      11.4715     113.3813    2.2604      1.0         2.6123      0.0         102.7214    
7224.5      11.5975     115.98      2.2604      1.0         2.5389      -999.25     102.5264    
