#----------------------------------------------------------------------------
~VERSION INFORMATION
VERS.            2.0                  :CWLS LOG ASCII STANDARD -VERSION 2.0
WRAP.            NO                   :ONE LINE PER DEPTH STEP
#
#--------------------------------------------------------------------
~WELL INFORMATION
#MNEM .UNIT      DATA                 :DESCRIPTION OF MNEMONIC
#----------      ------------         -------------------------------
STRT  .ft        4901.0               :START DEPTH
STEP  .ft        0.5                  :STEP DEPTH
STOP  .ft        7991.0               :STOP DEPTH
NULL  .          -999.25              :NULL VALUE
WELL  .          Well_B               :WELL
XWELL .m          789112               :X POS
YWELL .m          123456               :Y POS
EDF   .          61.86                :DERICK FLOOR ELEVATION
#
#----------------------------------------------------------------------------
~CURVE INFORMATION
#MNEM.UNIT                                  :CURVE DESCRIPTION
#----------                                 -------------------------------
DEPT        .ft                             :DEPTH
CALF        .in                             :12  
SON3        .us/ft                          :10  
FDC         .g/cm3                          :7  
VSH         .fract                          :6  
RT          .ohm.m                          :4  
POR         .fract                          :3  
GR_NM       .API                            :1  
#
#----------------------------------------------------------------------------
~A          CALF        SON3        FDC         VSH         RT          POR         GR_NM       
# ...
5274.5      10.4021     125.4811    2.0969      0.6352      2.6775      -999.25     99.029      
5275.0      10.402      123.7483    2.0847      0.6028      2.601       -999.25     98.2715     
5275.5      10.402      123.7482    2.0877      0.6325      2.52        -999.25     97.5141     
5276.0      10.4334     126.5041    2.0871      0.6351      2.52        -999.25     98.7052     
5276.5      10.4502     129.0237    2.086       0.6357      2.52        -999.25     98.7834     
5277.0      10.4806     124.9285    2.0837      0.6199      2.52        -999.25     96.5907     
5277.5      10.5593     123.7471    2.0778      0.6012      2.4976      -999.25     96.6593     
5278.0      10.5593     125.0853    2.0758      0.6039      2.4616      -999.25     96.7278     
5278.5      10.5593     126.5025    2.069       0.5895      2.4255      -999.25     96.7964     
5279.0      10.5592     125.7149    2.0656      0.5831      2.3937      -999.25     96.8649     
5279.5      10.5592     126.5022    2.0641      0.5862      2.3625      -999.25     96.9335     
5280.0      10.5592     124.5331    2.0641      0.5837      2.3625      -999.25     97.0021     
5280.5      10.5591     125.6461    2.0641      0.5851      2.3625      -999.25     97.0706     
5281.0      10.5727     126.1075    2.0758      0.6201      2.3961      -999.25     98.5265     
5281.5      10.5905     127.6822    2.0892      0.6668      2.4255      -999.25     99.9823     
5282.0      10.559      126.5005    2.1054      0.6996      2.5473      -999.25     101.4381    
5282.5      10.559      125.7129    2.1257      0.7512      2.6775      -999.25     100.7333    
5283.0      10.6692     127.4449    2.1391      0.8252      2.7338      -999.25     100.0285    
5283.5      10.7479     127.4447    2.1527      0.8939      2.8003      -999.25     99.4746     
5284.0      10.7478     125.712     2.1564      0.8941      2.835       -999.25     98.9207     
5284.5      10.7163     124.2942    2.163       0.911       2.9392      -999.25     98.3668     
5285.0      10.7163     123.5063    2.1672      0.926       2.9925      -999.25     94.6977     
5285.5      10.7162     125.0811    2.1778      0.9943      3.2517      -999.25     94.39       
5286.0      10.7162     124.9232    2.1834      1.0         3.4601      -999.25     94.0673     
5286.5      10.7476     124.9229    2.1797      1.0         3.6225      -999.25     93.7447     
5287.0      10.7949     124.5291    2.1383      0.7964      3.78        -999.25     93.4221     
5287.5      10.8263     124.9225    2.0907      0.5411      4.095       -999.25     96.8839     
5288.0      10.8602     124.9222    2.0049      2.0E-4      4.515       -999.25     101.2044    
5288.5      10.9135     124.5281    1.9205      2.0E-4      5.103       -999.25     105.525     
5289.0      10.9522     120.3667    1.8409      2.0E-4      5.8275      -999.25     103.7796    
5289.5      10.9837     117.5976    1.7855      2.0E-4      6.2799      -999.25     102.0342    
5290.0      10.9521     115.1867    1.7327      2.0E-4      6.678       -999.25     99.4669     
5290.5      10.9677     112.5175    1.7254      2.0E-4      7.4025      -999.25     95.4119     
5291.0      11.2041     111.1392    1.7565      2.0E-4      9.0004      -999.25     88.0067     
5291.5      11.5061     109.1702    1.8123      2.0E-4      10.1983     -999.25     85.0647     
5292.0      11.582      112.3199    1.864       2.0E-4      11.34       -999.25     74.2534     
5292.5      11.5032     108.4111    1.8823      2.0E-4      12.9192     -999.25     70.9032     
5293.0      10.7944     104.9955    1.8865      2.0E-4      14.7105     -999.25     58.2406     
5293.5      10.7786     114.0514    1.8321      2.0E-4      15.4724     -999.25     52.2897     
5294.0      10.8258     113.8543    1.8077      2.0E-4      16.41       -999.25     47.706      
5294.5      10.5108     110.7433    1.7838      2.0E-4      17.5455     -999.25     46.8473     
5295.0      10.9045     115.8014    1.7313      2.0E-4      17.01       -999.25     45.7679     
5295.5      11.503      120.7439    1.7112      2.0E-4      16.5375     -999.25     44.8243     
5296.0      11.4571     120.5123    1.7096      2.0E-4      17.1633     -999.25     43.8809     
5296.5      11.243      120.1923    1.7576      2.0E-4      17.4825     -999.25     42.9374     
5297.0      10.8728     117.987     1.7704      2.0E-4      17.64       -999.25     46.4215     
5297.5      10.8728     121.1366    1.7725      2.0E-4      17.9395     -999.25     50.9964     
5298.0      10.9515     119.1443    1.7704      2.0E-4      18.263      -999.25     52.9258     
5298.5      11.0302     116.0174    1.7901      2.0E-4      18.4905     -999.25     54.8552     
5299.0      11.0617     118.2219    1.8039      2.0E-4      18.9256     -999.25     53.4009     
5299.5      11.4239     120.9781    1.8123      2.0E-4      20.79       -999.25     51.2195     
5300.0      12.0539     119.7965    1.845       2.0E-4      24.1583     -999.25     46.1284     
5300.5      12.8413     124.1274    1.9164      2.0E-4      25.2        -999.25     41.0373     
5301.0      12.8413     120.9772    1.9383      2.0E-4      26.0331     -999.25     35.9462     
5301.5      13.2867     117.9844    1.9379      2.0E-4      26.775      -999.25     30.8551     
5302.0      13.3452     115.8579    1.9213      2.0E-4      26.775      -999.25     33.9646     
5302.5      12.5262     112.1956    1.8951      2.0E-4      26.775      -999.25     36.2463     
5303.0      12.4474     106.5647    1.876       2.0E-4      26.775      -999.25     38.2092     
5303.5      12.4001     103.4144    1.8577      2.0E-4      26.775      -999.25     38.2985     
5304.0      12.2935     102.8631    1.8514      2.0E-4      26.775      -999.25     35.7424     
5304.5      12.1323     105.619     1.8486      2.0E-4      25.2        -999.25     35.0562     
5305.0      11.8487     102.2324    1.867       2.0E-4      24.6147     -999.25     34.37       
5305.5      11.5179     104.9884    1.8821      2.0E-4      24.255      -999.25     33.6837     
5306.0      11.3447     107.6918    1.8873      2.0E-4      22.9374     -999.25     32.9975     
5306.5      11.2659     111.524     1.8755      2.0E-4      21.7392     -999.25     32.3113     
5307.0      11.0296     108.3801    1.8575      2.0E-4      20.0812     -999.25     31.625      
5307.5      10.7145     105.5362    1.8428      2.0E-4      17.7456     -999.25     31.9307     
5308.0      10.5885     104.9607    1.8322      2.0E-4      16.9155     -999.25     32.2363     
5308.5      10.557      100.6553    1.8305      2.0E-4      15.75       -999.25     32.5419     
5309.0      10.7807     102.2693    1.8524      2.0E-4      13.7025     -999.25     33.0059     
5309.5      10.9506     102.4659    1.8684      2.0E-4      12.3165     -999.25     33.4699     
5310.0      11.0609     108.3326    1.9361      2.0E-4      9.9855      -999.25     33.7187     
5310.5      10.7143     114.4355    1.9937      2.0E-4      9.6813      -999.25     33.9675     
5311.0      10.7143     111.6789    2.0566      0.2475      9.2452      -999.25     30.4634     
5311.5      10.7142     119.0024    2.1491      0.3749      8.9775      -999.25     26.9592     
5312.0      10.7142     116.6396    2.1707      0.419       8.505       -999.25     29.2634     
5312.5      10.7142     122.3093    2.1759      0.5139      8.19        -999.25     34.1906     
5313.0      10.7264     117.0327    2.1821      0.6086      7.7805      -999.25     40.2643     
5313.5      10.7383     118.6073    2.1856      0.7521      7.4655      -999.25     48.5864     
5314.0      10.7456     116.5251    2.189       0.9736      7.1505      -999.25     67.0596     
5314.5      10.7455     114.2757    2.2025      0.9973      6.615       -999.25     73.8605     
5315.0      10.7455     119.0005    2.2172      1.0         6.4575      -999.25     85.941      
5315.5      10.7454     114.6687    2.2334      1.0         6.3646      -999.25     99.8951     
